company,address,longitude,latitude,zipcode,town,state,date_founded,date_closed,company_type,source,name_changed,year_name_changed,notes,see also
A.M. INTL. INC.,1900 DUANE AVE.,-121.959755,37.380483,95051,,California,,,,Rich's Complete Guide to Silicon Valley,,,,
AAFCO Precision Manufacturing,"3150 Coronado Road, Santa Clara, CA",,,,Santa Clara,California,1973,,electronics assembly,,,,,
Abbott Labs,"1212 Terra Bella Ave, Mountain View, CA",-122.07898,37.408556,94043,Mountain View,California,,,,Rich's Complete Guide to Silicon Valley,,,,
ACCUTEST,"2680 N. 1st St., San Jose, CA",-121.929417,37.388396,95131,San Jose,California,,,,Rich's Complete Guide to Silicon Valley,,,,
ACTIVISION,240 MILPITAS BLVD.,-121.897037,37.429291,95035,,California,,,,Rich's Complete Guide to Silicon Valley,,,,
ACUREX CORP .,485 CLYDE AVE.,-122.046995,37.397956,94086,,California,1972,,,Rich's Complete Guide to Silicon Valley,,,,
ADAC Laboratories,"255 San Geronimo Way, Sunnyvale, CA",-122.013993213029,37.3803346317882,,Sunnyvale,California,1970,,nuclear medicine,,,,,
Addington Processing Lab,680 W. MAUDE AVE.,-122.033495,37.390654,94086,,California,,,,Rich's Complete Guide to Silicon Valley,,,,
Admiral Corp.,"901 S. California Avenue, Palo Alto, CA",-122.147804225554,37.4216582841524,,Palo Alto,California,,,,"Number of Employees and Value of Buildings in Stanford Industrial Park,' December 7, 1960, Folder 10, Frederick Terman Papers, SUA",,,,
Advanced Micro Devices Inc.,3340 SCOTT BLVD.,-121.981914,37.380387,95051,,California,,,chip manufacturing,Rich's Complete Guide to Silicon Valley,,,,
Advanced Micro Devices Inc.,898 STEWART DR.,-122.006408,37.383935,94086,,California,1969,,chip manufacturing,Rich's Complete Guide to Silicon Valley,,,,
Advanced Micro Devices Inc.,9 15 DE GUIGNE DR .,-122.023851,37.371042,94086,,California,1969,,chip manufacturing,Rich's Complete Guide to Silicon Valley,,,,
Advanced Transformer Co,"303 Portage Ave, Palo Alto, CA",,,,,California,,,,Palo Alto City Directory 1956,,,,
Aertech Industries,970 STEWART DR .,-122.002998,37.383925,94086,Sunnyvale,California,1968,,electronics,Rich's Complete Guide to Silicon Valley,,,Moved here in 1968,
Aertech Industries,455 DE GUIGNE DR.,-122.007206,37.383245,94086,Sunnyvale,California,1958,,electronics,Rich's Complete Guide to Silicon Valley,,,Original site. Bought by TRW; bought by FEI; sold to ST Microwave.,http://www.prc68.com/I/Aertech.shtml
Aertech Industries,250 Polaris,,,,Mountain View,California,1963,,electronics,,,,Moved here in 1963,
Alfred Electronics,"895 Commercial, Palo Alto, CA",-122.1005801,37.4228106,,Palo Alto,California,1950,,electronics,,,,Founding date unclear,
Alhouse Building,"2450 El Camino Real, Palo Alto, CA",-122.1454668,37.4246547,,Palo Alto,California,1960,,non-industrial,"Number of Employees and Value of Buildings in Stanford Industrial Park,' December 7, 1960, Folder 10, Frederick Terman Papers, SUA",,,Founding date unclear,
Allen Electronic Corp,"937 Industrial, Palo Alo, CA",,,,Palo Alto,California,,,,,,,,
Alpar Manufacturing Corp,"220 Demelter, Palo Alto, CA",,,,Palo Alto,California,1957,,,,,,Founding date unclear,
Altera,101 Innovation Drive,,,95134,San Jose,California,1983,,electronics,Computer History Museum,,,,
AMDAHL,2200 LAWSON LN.,-121.963261,37.375198,95050,,California,1970,,hardware manufacturing,Rich's Complete Guide to Silicon Valley,,,,
American Microsystems Inc (AMI),3800 Homestead Road,-122.0649879,37.3374866,95014,Santa Clara,California,1966,1988,chip manufacturing,,,,Relocated to Idaho in 1988.,
Ampex Corp.,814 SAN ALESO DR.,-122.023851,37.371042,94086,,California,,,electronics,Rich's Complete Guide to Silicon Valley,,,,
Ampex Corp.,728 SAN ALESO AVE .,-122.026872,37.396359,94086,,California,,,electronics,Rich's Complete Guide to Silicon Valley,,,,
Ampex Corp.,465 W. MAUDE AVE.,-122.03144,37.389991,94086,,California,,,electronics,Rich's Complete Guide to Silicon Valley,,,,
Ampex Corp.,10435 N. TANTAU AVE.,-122.005863,37.328925,95014,,California,,,electronics,Rich's Complete Guide to Silicon Valley,,,,
Ampex Corp.,"301 Town and Country Village, Palo Alto, CA",,,,Palo Alto,California,,,electronics,,,,,
Ampex Corporation, 500 Broadway,,,94063,Redwood City,California,1944,,electronics,,,,,
Amseo Electronics,"4007 Transport, Palo Alto, CA",-122.100021263815,37.4261795,,Palo Alto,California,,,,,,,,
Antekna Inc.,625 Clyde Ct.,-122.047279,37.400697,94043,,California,1972,,electronics,Rich's Complete Guide to Silicon Valley,,,,
Anthem Electronics,,,,,,California,,,chip manufacturing,,,,,
Apple Computer,1335 Bordeaux Dr.,-122.021526,37.414713,94086,,California,1976,,,Rich's Complete Guide to Silicon Valley,,,,
Apple Computer,232 Java Dr.,-122.016605,37.411236,94086,,California,1976,,,Rich's Complete Guide to Silicon Valley,,,,
APPLE COMPUTER,2720 ORCHARD PKWY.,-121.933015,37.386567,95134,,California,1976,,hardware manufacturing,Rich's Complete Guide to Silicon Valley,,,,
APPLE COMPUTER,3073 N. 1ST ST.,-121.935406,37.396149,95131,,California,1976,,hardware manufacturing,Rich's Complete Guide to Silicon Valley,,,,
APPLE COMPUTER INC .,10260 BANDLEY DR.,-122.03432,37.327437,95014,,California,1976,,hardware manufacturing,Rich's Complete Guide to Silicon Valley,,,,
APPLE COMPUTER INC.,10260 BUBB RD.,-122.049987,37.318845,95014,,California,1976,,hardware manufacturing,Rich's Complete Guide to Silicon Valley,,,,
Apple Computer,1 Infinity Loop,,,95014,Cupertino,California,1993,,,,,,,
APPLICON INC.,2540 MISSION COLLEGE BLV.,-121.935679,37.34357,95050,,California,,,,Rich's Complete Guide to Silicon Valley,,,,
Applied Magnetics,,,,,,California,,,hardware manufacturing,,,,,
APPLIED MATERIALS INC .,3400 CENTRAL EXP.,-121.991261,37.377572,95051,Santa Clara,California,1967,,semiconductor manufacturing,Rich's Complete Guide to Silicon Valley,,,,
APPLIED MATERIALS INC.,3001 OAKMEAD VILLAGE DR.,-121.980423,37.375959,95051,Santa Clara,California,1967,,semiconductor manufacturing,Rich's Complete Guide to Silicon Valley,,,,
APPLIED MATERIALS INC.,2940 KIFER RD.,-121.981225,37.374089,95051,Santa Clara,California,1967,,semiconductor manufacturing,Rich's Complete Guide to Silicon Valley,,,,
APPLIED MATERIALS INC.,2727 AUGUSTINE DR.,-121.976213,37.382354,95051,Santa Clara,California,1967,,semiconductor manufacturing,Rich's Complete Guide to Silicon Valley,,,,
APPLIED TECH/ITEK,525 ALMANOR AVE.,-122.028853,37.396377,94086,,California,1957,,,Rich's Complete Guide to Silicon Valley,,,,
APPLIED TECH/ITEK,750 ARQUES AVE .,-122.013356,37.380978,94086,,California,1957,,,Rich's Complete Guide to Silicon Valley,,,,
Applied Technology,3410 Hillview Ave,,,,Palo Alto,California,1957,,,"Deseret News, Nov. 16, 1967",,,,
ARTELONICS,2952 BUNKER HILL LN.,-121.980423,37.405685,95014,,California,,,,Rich's Complete Guide to Silicon Valley,,,,
ARTRONIK CIRCUITS INC.,2750 SCOTT BLVD .,-121.959533,37.369921,95050,,California,,,,Rich's Complete Guide to Silicon Valley,,,,
Ashton-Tate,,,,,,California,,,software,,,,,
Ask Computer Systems Inc.,730 Distel Dr.,-122.104203,37.394985,94022,,California,1972,1994,,Rich's Complete Guide to Silicon Valley,,,,
Associated Radio Distributors,"459 California Ave, Palo Alto, CA",-122.1452046,37.4256122,,Palo Alto,California,,,,,,,,
AST Research,,,,,,California,,,hardware manufacturing,,,,,
ATARI,2710 N. 1ST ST.,-121.929896,37.389031,95131,,California,1972,,electronics,Rich's Complete Guide to Silicon Valley,,,,
ATARI,790 SYCAMORE DR .,-121.919173,37.40761,95035,,California,1972,,electronics,Rich's Complete Guide to Silicon Valley,,,,
ATARI,715 SYCAMORE DR.,-121.916618,37.408677,95035,,California,1972,,electronics,Rich's Complete Guide to Silicon Valley,,,,
Atari Inc.,1272 Borregas Ave,-122.018385,37.410451,94086,,California,1972,,electronics,Rich's Complete Guide to Silicon Valley,,,,
Atari Inc.,155 Moffett Park Dr.,-122.023328,37.404068,94086,,California,1972,,electronics,Rich's Complete Guide to Silicon Valley,,,,
Atari Inc.,1183 Bordeaux Dr.,-122.0236,37.408356,94086,,California,1972,,electronics,Rich's Complete Guide to Silicon Valley,,,,
Atari Inc.,1320 Bordeaux Dr.,-122.021686,37.414143,94086,,California,1972,,electronics,Rich's Complete Guide to Silicon Valley,,,,
Atari Inc.,390 Caribbean Dr.,-122.009314,37.41576,94086,,California,1972,,electronics,Rich's Complete Guide to Silicon Valley,,,,
Atari Inc.,1340 Bordeaux Dr.,-122.021492,37.414956,94086,,California,1972,,electronics,Rich's Complete Guide to Silicon Valley,,,,
Atari Inc.,1383 Borregas Ave.,-122.016557,37.416064,94086,,California,1972,,electronics,Rich's Complete Guide to Silicon Valley,,,Original site of Atari,
Atari Inc.,275 Gibraltar Dr.,-122.016363,37.409773,94086,,California,1972,,electronics,Rich's Complete Guide to Silicon Valley,,,,
Atari Inc.,1399 Moffett Park Dr.,-122.00064,37.41183,94086,,California,1972,,electronics,Rich's Complete Guide to Silicon Valley,,,,
Atari Inc.,1285 Forgewood Ave.,-121.992,37.409528,94086,,California,1972,,electronics,Rich's Complete Guide to Silicon Valley,,,,
Autodesk,,,,,,California,,,software,,,,,
AVANTEK INC.,481 COTTONWOOD DR.,-121.912029,37.40535,95035,,California,,,,Rich's Complete Guide to Silicon Valley,,,,
Aydin Corporation,"3180 Hanover St, Palo Alto, CA",-122.1464616,37.4141881,,Palo Alto,California,,,,,,,,
Aydin Energy Division,3180 Hanover St.,-122.143352,37.415343,94304,,California,,,,Rich's Complete Guide to Silicon Valley,,,,
Aydin Systems Div. Mfg.,640 Clyde Ct.,-122.049289,37.400633,94043,,California,,,,Rich's Complete Guide to Silicon Valley,,,,
B.N.R. Inc.,685 E. Middlefield Rd.,-122.07431,37.38802,94042,,California,,,,Rich's Complete Guide to Silicon Valley,,,,
Beckman Instruments,"1117 California Avenue, Palo Alto, CA",-122.149023672821,37.42035945,,Palo Alto,California,,,,"Number of Employees and Value of Buildings in Stanford Industrial Park,' December 7, 1960, Folder 10, Frederick Terman Papers, SUA",,,,
Beckman Instruments Inc Systems,"256 Town and Country Village, Palo Alto, CA",,,,Palo Alto,California,,,,,,,,
Beckman Instruments Inc.,950 Page Mill Rd.,-122.144941,37.419734,94304,,California,,,,Rich's Complete Guide to Silicon Valley,,,,
Becton Dickinson Elect. Labs,506 Clyde Ave,-122.046995,37.398432,94043,,California,,,,Rich's Complete Guide to Silicon Valley,,,,
BECTON DICKINSON FACS SYSTEMS,470 LAKESIDE DR.,-121.993368,37.382649,94086,,California,,,,Rich's Complete Guide to Silicon Valley,,,,
Bell Industries,2599 Garcia Ave.,-122.094604,37.426447,94043,,California,,,,Rich's Complete Guide to Silicon Valley,,,,
Bell Industries…sion Metalcraft,2637 Marine Way,-122.098136,37.428882,94043,,California,,,,Rich's Complete Guide to Silicon Valley,,,,
BENSON INC.,2694 ORCHARD PKWY.,-121.93286,37.386173,95134,,California,,,,Rich's Complete Guide to Silicon Valley,,,,
BERG ELECTRONICS,3375 SCOTT BLVD. #208,-121.984714,37.380594,95051,,California,,,,Rich's Complete Guide to Silicon Valley,,,,
Boole and Babbage,,,,,,California,,,software,,,,,
Borland International,,,,,,California,,,software,,,,,
Brand William Electronic Components Inc,"535 Middlefield Road, Palo Alto, CA",-122.1362592,37.4377862,,,,,,,,,,,
Broderbund Software,,,,,,California,,,software,,,,,
Businessland,,,,,,California,,,distribution,,,,,
CAELUS MEMORIES INC.,1015 TIMOTHY DR.,-121.880721,37.363902,95133,,California,,,,Rich's Complete Guide to Silicon Valley,,,,
CAELUS MEMORIES INC.,1015 TIMOTHY DR.,-121.880721,37.363902,95133,,California,,,,Rich's Complete Guide to Silicon Valley,,,,
Cal-Mac (bankrupt),"175 Weeks St, Palo Alto, CA",,,,Palo Alto,California,,,,,,,,
CALIF. MICROWAVE INC.,760 N. MARY AVE.,-122.035797,37.396597,94086,,California,,,,Rich's Complete Guide to Silicon Valley,,,,
Calma Company,225 Humboldt Ct.,-122.01828,37.408155,94086,,California,,,,Rich's Complete Guide to Silicon Valley,,,,
Calma Company,213 Gibraltar,-122.018021,37.41013,94086,,California,,,,Rich's Complete Guide to Silicon Valley,,,,
CALMA COMPANY,527 LAKESIDE DR.,-121.993367,37.385005,94086,,California,,,,Rich's Complete Guide to Silicon Valley,,,,
CANDELA ELECTRONICS,550 DEL REY,-122.023851,37.371042,94086,,California,,,,Rich's Complete Guide to Silicon Valley,,,,
Carad Corporation,"3381 Junipero Serra Blvd., Palo Alto, CA",,,,Palo Alto,California,,,,"Number of Employees and Value of Buildings in Stanford Industrial Park,' December 7, 1960, Folder 10, Frederick Terman Papers, SUA",,,,
CDI CORP.,50 W. BROKAW RD.,-121.901914,37.338251,95110,,California,,,,Rich's Complete Guide to Silicon Valley,,,,
CDI CORP.,50 W. BROKAW RD.,-121.901914,37.338251,95110,,California,,,,Rich's Complete Guide to Silicon Valley,,,,
CHEMICAL SYS.,1050 E. ARQUES AVE.,-122.000417,37.380482,94086,,California,,,,Rich's Complete Guide to Silicon Valley,,,,
Chips and Technologies,,,,,,California,,,chip manufacturing,,,,,
Circo Inc.,"940 Hamlin Ct, Sunnyvale, CA",-122.029754050461,37.4006049732311,,Sunnyvale,California,,,,,,,,
"Clark, Stromquist, Potter & Ehrlich","3200 Hanover Street, Palo Alto, CA",-122.14584472372,37.414551,,Palo Alto,California,,,,"Number of Employees and Value of Buildings in Stanford Industrial Park,' December 7, 1960, Folder 10, Frederick Terman Papers, SUA",,,,
Coherent Inc.,3270 W. Bayshore Road,-122.112178,37.438142,94303,,California,,,,Rich's Complete Guide to Silicon Valley,,,,
Collins Electronics Sales Inc,"53 Middlefield Road, Palo Alto, CA",-122.1362592,37.4377862,,Palo Alto,California,,,,,,,,
COMMODORE BUSINESS MACHINES,3330 SCOTT BLVD.,-121.980889,37.380471,95051,,California,,,,Rich's Complete Guide to Silicon Valley,,,,
COMMODORE BUSINESS MACHINES,390 REED ST.,-121.938351,37.360933,95050,,California,,,,Rich's Complete Guide to Silicon Valley,,,,
Components for Research Inc,"979 Commercial Road, Palo Alto, CA",,,,Palo Alto,,,,,,,,,
Computerland,,,,,,California,,,distribution,,,,,
Conner Peripherals,,,,,,California,,,hardware manufacturing,,,,,
Consolidated Development,NW Corner Hanover and Page Mill,,,,Palo Alto,California,,,,"Number of Employees and Value of Buildings in Stanford Industrial Park,' December 7, 1960, Folder 10, Frederick Terman Papers, SUA",,,,
Consolidated Micrographics,303 Ravendale Dr.,-122.054595,37.388996,94043,,California,,,,Rich's Complete Guide to Silicon Valley,,,,
Consolidated Vacuum Corp,"4015 Fabian Way, Palo Alto, CA",-122.1042399,37.4258394,,Palo Alto,California,,,,,,,,
Control Data Corp.,1330 Orleans Dr.,-122.006847,37.411006,94086,,California,,,,Rich's Complete Guide to Silicon Valley,,,,
Coopertronix ,"809 San Antonio, Palo Alto, CA",,,,Palo Alto,California,,,,,,,,
Corbin-Farnsworth Inc,"440 Page Mill Road, Palo Alto, CA",-122.141250300603,37.423860149296,,Palo Alto,California,,,,,,,,
Cornell-Dubiliar,"553 Cowper, Palo Alto, CA",-122.1585216915,37.4479985456265,,Palo Alto,California,,,,,,,,
Corning A.C.I.,490 San Antonio Road,-122.104899,37.413212,94303,,California,,,,Rich's Complete Guide to Silicon Valley,,,,
CPS INC.,110 WOLFE RD .,-122.013809,37.375565,94086,,California,,,,Rich's Complete Guide to Silicon Valley,,,,
CTS Printex Inc.,1950 Colony St  ,-122.088975018765,37.4158386083038,,,California,,,,,,,,
Cypress Semiconductor,,,,,,California,,,chip manufacturing,,,,,
D.M.C.,2300 OWEN ST.,-121.966473,37.376075,95051,,California,,,,Rich's Complete Guide to Silicon Valley,,,,
Data Control Systems Inc,"535 Middlefield Road, Palo Alto, CA",-122.1362592,37.4377862,,Palo Alto,California,,,,,,,,
DATA PRODUCTS,2550 ZANKER RD.,-121.923462,37.387611,95131,,California,,,,Rich's Complete Guide to Silicon Valley,,,,
DATA QUEST INC.,10340 BUBB RD.,-122.049522,37.317594,95014,,California,,,,Rich's Complete Guide to Silicon Valley,,,,
DATAPOINT PERIP…AL PRODUCT INC.,810 W. MAUDE AVE .,-122.034615,37.391009,94086,,California,,,,Rich's Complete Guide to Silicon Valley,,,,
Delcon Corp,"943 Industrial, Palo Alto, CA",-122.0990143,37.423557,,Palo Alto,California,,,,,,,,
Diasonics,1235 Bordeaux Dr.,-122.022819,37.410801,94086,,California,,,,Rich's Complete Guide to Silicon Valley,,,,
DIASONICS,1545 BARBER LANE,-121.9108,37.407716,95035,,California,,,,Rich's Complete Guide to Silicon Valley,,,,
DIETZGEN,3185 DE LaCRUZ BLVD.,-121.940942,37.381489,95050,,California,,,,Rich's Complete Guide to Silicon Valley,,,,
DIGITAL EQUIPMENT CORP.,2525 AUGUSTINE DR.,-121.973496,37.382366,95051,,California,,,,Rich's Complete Guide to Silicon Valley,,,,
DOHRMANN-ENVIROTECH,3240 SCOTT BLVD.,-121.970644,37.379431,95051,,California,,,,Rich's Complete Guide to Silicon Valley,,,,
Dura Bond,"3201 Ash St, Palo Alto, CA",-122.136709003212,37.422597,,Palo Alto,California,,,,,,,,
Dymec,"395 Page Mill Road, Palo Alto, CA",-122.1393686,37.4257063,,Palo Alto,,,,,,,,,
Eastman Kodac Co.,"925 Page Mill Rd, Palo Alto, CA",-122.143423293266,37.4187805,,Palo Alto,California,,,,,,,,
Eastman Kodack Processing Lab,"925 Page Mill Road, Palo Alto, CA",-122.143423293266,37.4187805,,Palo Alto,California,,,,"Number of Employees and Value of Buildings in Stanford Industrial Park,' December 7, 1960, Folder 10, Frederick Terman Papers, SUA",,,,
Eastman Kodak Co.,925 Page Mill Rd.,-122.144927,37.419496,94304,,California,,,,Rich's Complete Guide to Silicon Valley,,,,
EATON CORP. / MACRODATA,1115 ARQUES AVE.,-121.999848,37.380498,94086,,California,,,,Rich's Complete Guide to Silicon Valley,,,,
EATON SEMICONDUCTOR,3500 GARRETT DR.,-121.985342,37.38221,95051,,California,,,,Rich's Complete Guide to Silicon Valley,,,,
Echo Corp,"809 San Antonio Road, Palo Alto, CA",-122.1022081,37.4206677,,Palo Alto,California,,,,,,,,
Electrical Materials Corp,"810 San Antonio Rd, Palo Alto, CA",,,,Palo Alto,California,,,,,,,,
Electro Scientific Industries,,,,,,Oregon,,,,,,,,
Electronic Arrays Inc.,555 Ellis St.,-122.05161,37.401636,94043,,California,,,,Rich's Complete Guide to Silicon Valley,,,,
Electronic Motive Manufacturing Company,"535 Middlefield Road, Palo Alto, CA",-122.1362592,37.4377862,,Palo Alto,California,,,,,,,,
Epson,,,,,,Oregon,,,,,,,,
ESL Inc.,"425 Tasman Ave, Sunnyvale, CA",,,,Sunnyvale,California,,,,,,,,
Everex Systems,,,,,,California,,,hardware manufacturing,,,,,
EXSIL,6540 VIA DEL ORO,-121.785671,37.236466,95119,,California,,,,Rich's Complete Guide to Silicon Valley,,,,
EXSIL,6540 VIA DEL ORO,-121.785671,37.236466,95119,,California,,,,Rich's Complete Guide to Silicon Valley,,,,
EXXON OFFICE SYSTEMS,3960 FREEDOM CIRCLE,-121.972124,37.386085,95054,,California,,,,Rich's Complete Guide to Silicon Valley,,,,
F.M.C. CORP.,1185 COLEMAN AVE.,-121.932819,37.35675,95050,,California,,,,Rich's Complete Guide to Silicon Valley,,,,
Fairchild,3440 Hillview Ave.,-122.143956,37.397349,94304,,California,,,,Rich's Complete Guide to Silicon Valley,,,,
Fairchild,4001 Miranda Ave.,-122.139755,37.401638,94304,,California,,,,Rich's Complete Guide to Silicon Valley,,,,
FAIRCHILD (SEMI…ONDUCTOR BLDG.),101 BERNAL RD.,-121.773443,37.230657,95119,,California,,,,Rich's Complete Guide to Silicon Valley,,,,
FAIRCHILD (SEMI…ONDUCTOR BLDG.),101 BERNAL RD.,-121.773443,37.230657,95119,,California,,,,Rich's Complete Guide to Silicon Valley,,,,
FAIRCHILD BIPOLAR DIV.,1801 McCARTHY BLVD.,-121.914706,37.401472,95035,,California,,,,Rich's Complete Guide to Silicon Valley,,,,
FAIRCHILD CAMER… AND INSTRUMENT,1601 TECHNOLOGY DR.,-121.91579,37.36429,95110,,California,,,,Rich's Complete Guide to Silicon Valley,,,,
FAIRCHILD CAMER… AND INSTRUMENT,1601 TECHNOLOGY DR.,-121.91579,37.36429,95110,,California,,,,Rich's Complete Guide to Silicon Valley,,,,
Fairchild Camera & Instru.,465 National Ave.,-122.053348,37.401324,94043,,California,,,,Rich's Complete Guide to Silicon Valley,,,,
Fairchild Semi-Conductor Corp.,"4001 Miranda Ave, Palo Alto, CA",-122.1305947,37.3946145,,Palo Alto,California,,,,,,,,
Fairchild Semiconductor Corp,"884 Charleston Rd, Palo Alto, CA",,,,Palo Alto,California,,,,,,,,
Fairchild Semiconductor Corp,"378 Cambridge Road, Palo Alto, CA",,,,Palo Alto,California,,,,,,,,
Fairchild Semiconductor Corp.,"464 Ellis St, Mountain View, CA",-122.052383387666,37.3999973546245,,Mountain View,California,,,,,,,,
FAIRCHILD TEST SYS. GROUP,1725 TECHNOLOGY DR.,-121.916893,37.365079,95110,,California,,,,Rich's Complete Guide to Silicon Valley,,,,
FAIRCHILD TEST SYS. GROUP,1725 TECHNOLOGY DR.,-121.916893,37.365079,95110,,California,,,,Rich's Complete Guide to Silicon Valley,,,,
FAIRCHILD-CMOS/LIC,3105 ALFRED ST.,-121.958591,37.378312,95051,,California,,,,Rich's Complete Guide to Silicon Valley,,,,
FAIRCHILD-MICROPROCESSOR DIV.,3420 CENTRAL EXP.,-121.991825,37.377572,95051,,California,,,,Rich's Complete Guide to Silicon Valley,,,,
Farnsworth Electronic Co,"815 San Antonio Road, Palo Alto, CA",-122.102380297532,37.420688,,Palo Alto,California,,,,,,,,
FEDERAL PACIFIC ELEC. CO.,1200 PIPER DR .,-121.891463,37.411462,95035,,California,,,,Rich's Complete Guide to Silicon Valley,,,,
FERIX,611 VAQUEROS AVE.,-122.032129,37.39326,94086,,California,,,,Rich's Complete Guide to Silicon Valley,,,,
Ferro-Magnetics,"989 Commercial, Palo Alto, CA",,,,Palo Alto,California,,,electrical manufacturing,,,,,
Filtron Co,"926 Industrial, Palo Alto, CA",-122.0980412,37.4228683,,Palo Alto,California,,,,,,,,
FISHER SWITCHES INC.,3381 EDWARD AVE.,-121.941609,37.385874,95050,,California,,,,Rich's Complete Guide to Silicon Valley,,,,
Flight Dynamics,,,,,,Oregon,1977,,hardware manufacturing,"Dodds and Wollner, *The Silicon Frontier*, p. 64.",,,,
Floating Point Systems,,,,,,Oregon,,,,,,,,
FMC CORP.,245 CHARCOT AVE.,-121.918085,37.380458,95131,,California,,,,Rich's Complete Guide to Silicon Valley,,,,
FMC CORP.,1830 BERING DR.,-121.911912,37.373148,95112,,California,,,,Rich's Complete Guide to Silicon Valley,,,,
FMC CORP.,1115 COLEMAN AVE.,-121.923709,37.352274,95110,,California,,,,Rich's Complete Guide to Silicon Valley,,,,
FMC CORP.,1115 COLEMAN AVE.,-121.923709,37.352274,95110,,California,,,,Rich's Complete Guide to Silicon Valley,,,,
Ford Aerospace …mp; Comm. Corp.,1260 Crossman Ave.,-122.010381,37.410339,94086,,California,,,,Rich's Complete Guide to Silicon Valley,,,,
FOUR PHASE SYSTEMS INC.,2200 MARTH; AVE.,-121.948812,37.345983,95050,,California,,,,Rich's Complete Guide to Silicon Valley,,,,
FOUR-PHASE SYSTEMS I NC.,10500 N. De ANZA BLVD.,-122.032192,37.328867,95014,,California,,,,Rich's Complete Guide to Silicon Valley,,,,
Fujitsu,,,,,,Oregon,,,hardware manufacturing,,,,,
FXR Inc,"701 Welch Road, Palo Alto, CA",-122.172683,37.436904,,Palo Alto,California,,,,,,,,
G.E. Traveling Tube Division,"601 S. California Ave, Palo Alto, CA",-122.145894320475,37.423271872748,,Palo Alto,California,,,,"Number of Employees and Value of Buildings in Stanford Industrial Park,' December 7, 1960, Folder 10, Frederick Terman Papers, SUA",,,,
G.S. TEMPRESS,1510 DELL AVE.,-121.956119,37.264462,95008,,California,,,,Rich's Complete Guide to Silicon Valley,,,,
G.T.E. Fibre Optics,1395 Charleston Rd.,-122.077096,37.420443,94043,,California,,,,Rich's Complete Guide to Silicon Valley,,,,
G.T.E. Sylvania,685 E. Middlefield Rd.,-122.051413,37.394029,94043,,California,,,,Rich's Complete Guide to Silicon Valley,,,,
G.T.E. Sylvania,100 Ferguson Dr.,-122.057415,37.388228,94043,,California,,,,Rich's Complete Guide to Silicon Valley,,,,
GCA CORP.,3570 RYDER ST.,-121.994859,37.376342,95051,,California,,,,Rich's Complete Guide to Silicon Valley,,,,
GCA IC SYSTEMS,720 PALOMAR AVE .,-122.034233,37.395885,94086,,California,,,,Rich's Complete Guide to Silicon Valley,,,,
GCA IC SYSTEMS,1050 KIFER RD.,-122.002629,37.373871,94086,,California,,,,Rich's Complete Guide to Silicon Valley,,,,
General Capacitor Co,"755 Loma Verde Ave, Palo Alto, CA",-122.1222506,37.4305506,,,,,,,,,,,
GENERAL DEVICES INC.,2355 DE LaCRUZ BLVD.,-121.941451,37.364151,95050,,California,,,,Rich's Complete Guide to Silicon Valley,,,,
General Elec. Co./Space Div.,1277 Orleans Dr.,-122.00728,37.409789,94086,,California,,,,Rich's Complete Guide to Silicon Valley,,,,
General Electric Atomic Products Division,"701 University Ave, Palo Alto, CA",-122.156775,37.450858,,Palo Alto,California,,,,,,,,
GENERAL ELECTRIC CO.,310 DE GUIGNE DR.,-122.007233,37.381184,94086,,California,,,,Rich's Complete Guide to Silicon Valley,,,,
GENERAL ELECTRIC CO.,2155 S. 1ST ST.,-121.873859,37.31644,95112,,California,,,,Rich's Complete Guide to Silicon Valley,,,,
GENERAL ELECTRIC CO.,2155 S. 1ST ST.,-121.873859,37.31644,95112,,California,,,,Rich's Complete Guide to Silicon Valley,,,,
General Electric Ordnance Department,"2443 Ash Rim, Palo Alto, CA",,,,Palo Alto,California,,,electrical manufacturing,,,,,
General Electric Powertabe and Microwave Department,"601 California Ave, Palo Alto, CA",-122.1430031,37.4285379,,Palo Alto,California,,,,,,,,
General Instrument Corp,3400 Hillview Ave.,-122.146002,37.403466,94304,,California,,,,Rich's Complete Guide to Silicon Valley,,,,
GENERAL TECHNOLOGY CORP.,1028 W. MAUDE AVE.,-122.043315,37.393885,94086,,California,,,,Rich's Complete Guide to Silicon Valley,,,,
GENRAD INC.,2855 BOWERS AVE.,-121.977604,37.373101,95051,,California,,,,Rich's Complete Guide to Silicon Valley,,,,
Gianni Controls Corp,"271 Town & Country Road, Palo Alto, CA",1.8774979,7.7227067,,Palo Alto,California,,,,,,,,
Ginn & Co.,"2550 Hanover Street, Palo Alto, CA",-122.149545519769,37.4180825,,Palo Alto,California,,,,"Number of Employees and Value of Buildings in Stanford Industrial Park,' December 7, 1960, Folder 10, Frederick Terman Papers, SUA",,,,
Gould -- S.E.L. Computer Sys.,1289 Anvilwood Ave.,-121.993788,37.408698,94086,,California,,,,Rich's Complete Guide to Silicon Valley,,,,
GOULD DeA ZA IM… & GRAPHICS,1870 LUNDY AVE.,-121.889915,37.392046,95131,,California,,,,Rich's Complete Guide to Silicon Valley,,,,
GOULD INC.,3211-7A SCOTT BLVD.,-121.983478,37.346518,95051,,California,,,,Rich's Complete Guide to Silicon Valley,,,,
GOULD INC/BIOMATION DIV.,4600 OLD IRONSIDES DR .,-121.979537,37.396334,95014,,California,,,,Rich's Complete Guide to Silicon Valley,,,,
Granger Associates,"974 Commercial, Palo Alto, CA",-122.0996485,37.424214,,Palo Alto,California,,,,,,,,
GTE PRODUCTS,1180 KERN AVE.,-121.997474,37.382579,94086,,California,,,,Rich's Complete Guide to Silicon Valley,,,,
Hamilton Electro Sales,"882 Emerson, Palo Alto, CA",-122.158311780198,37.4415430278231,,Palo Alto,Ca,,,,,,,,
HARRIS MICROWAVE,1530 McCARTHY BLVD.,-121.920133,37.4077,95035,,California,,,,Rich's Complete Guide to Silicon Valley,,,,
Hewlett Packard,395 Page Mill Rd.,-122.13973,37.425661,94304,,California,,,,Rich's Complete Guide to Silicon Valley,,,,
Hewlett Packard,640 Page Mill Rd.,-122.143546,37.421408,94304,,California,,,,Rich's Complete Guide to Silicon Valley,,,,
Hewlett Packard,901 California Ave.,-122.131391,37.442744,94301,,California,,,,Rich's Complete Guide to Silicon Valley,,,,
Hewlett Packard,1501 Page Mill Rd.,-122.149615,37.413842,94304,,California,,,,Rich's Complete Guide to Silicon Valley,,,,
Hewlett Packard,3000 Hanover St.,-122.144814,37.416111,94304,,California,,,,Rich's Complete Guide to Silicon Valley,,,,
Hewlett Packard,1601 California Ave.,-122.152583,37.416988,94306,,California,,,,Rich's Complete Guide to Silicon Valley,,,,
Hewlett Packard,3495 Deer Creek Rd.,-122.151332,37.396082,94304,,California,,,,Rich's Complete Guide to Silicon Valley,,,,
Hewlett Packard,3500 Deer Creek Rd.,-122.151621,37.39617,94304,,California,,,,Rich's Complete Guide to Silicon Valley,,,,
HEWLETT PACKARD,11000 WOLFE RD.,-122.014161,37.335921,95014,,California,,,,Rich's Complete Guide to Silicon Valley,,,,
HEWLETT PACKARD,19410 HOMESTEAD RD.,-122.011692,37.3377,95014,,California,,,,Rich's Complete Guide to Silicon Valley,,,,
HEWLETT PACKARD,19447 PRUNERIDGE AVE.,-122.012036,37.333493,95014,,California,,,,Rich's Complete Guide to Silicon Valley,,,,
HEWLETT PACKARD,19310 PRUNERIDGE AVE.,-122.010639,37.332514,95014,,California,,,,Rich's Complete Guide to Silicon Valley,,,,
HEWLETT PACKARD,1330 KIFER RD.,-121.977829,37.37412,95051,,California,,,,Rich's Complete Guide to Silicon Valley,,,,
HEWLETT PACKARD,350 W. TRIMBLE RD.,-121.933456,37.3833,95134,,California,,,,Rich's Complete Guide to Silicon Valley,,,,
Hewlett Packard Parts,333 Logue Ave,-122.07431,37.38802,94042,,California,,,,Rich's Complete Guide to Silicon Valley,,,,
HEWLETT PACKARD-DTD,974 E. ARQUES AVE.,-122.004718,37.380738,94086,,California,,,,Rich's Complete Guide to Silicon Valley,,,,
HEWLETT PACKARD-SMC,3410 CENTRAL EXP.,-121.991543,37.377572,95051,,California,,,,Rich's Complete Guide to Silicon Valley,,,,
HEWLETT PACKARD…GENERAL SYSTEMS,5303 STEVENS CREEK BLVD.,-121.996871,37.323076,95050,,California,,,hardware manufacturing,Rich's Complete Guide to Silicon Valley,,,,
Hewlett-Packard,"3180 Hanover St, Palo Alto, CA",-122.1464616,37.4141881,,Palo Alto,California,,,hardware manufacturing,,,,,
Hewlett-Packard,"640 Page Mill Rd, Palo Alto, CA",-122.1456088,37.4218863,,Palo Alto,California,,,hardware manufacturing,,,,,
Hewlett-Packard,"333 Logue Ave, Mountain View, CA",-122.050869351983,37.3950585889097,,Mountain View,California,,,hardware manufacturing,,,,,
Hewlett-Packard ,"1501 Page Mill Rd, Palo Alto, CA",-122.147832338048,37.41202695,,Palo Alto,California,,,hardware manufacturing,,,,,
Hewlett-Packard ,"3500 Deer Creek Rd, Palo Alto, CA",-122.150143471946,37.3946435,,Palo Alto,California,,,hardware manufacturing,,,,,
Hewlett-Packard Co.,"1501 Page Mill Road, Palo Alto, CA",-122.147832338048,37.41202695,,Palo Alto,California,,,,"Number of Employees and Value of Buildings in Stanford Industrial Park,' December 7, 1960, Folder 10, Frederick Terman Papers, SUA",,,,
Hillview Eleanor Plume,"Hillview and Eleanor Intersection, Los Altos, CA",,,,,California,,,,,,,,
Hillview-Porter (Watkins Johnson Well) ,"3333 Hillview Dr, Palo Alto, CA",,,,Palo Alto,California,,,,,,,,
HOLIDAY INN,282 ALMADEN BLVD.,-121.891513,37.329775,95126,,California,,,,Rich's Complete Guide to Silicon Valley,,,,
HOLIDAY INN,282 ALMADEN BLVD.,-121.891513,37.329775,95126,,California,,,,Rich's Complete Guide to Silicon Valley,,,,
Honeywell Comm. Div.,1130 Mt. View-Alviso Rd.,-122.023851,37.371042,94086,,California,,,,Rich's Complete Guide to Silicon Valley,,,,
HOTEL SAINTE CLAIRE,302 S. MARKET ST.,-121.88807,37.330661,95126,,California,,,,Rich's Complete Guide to Silicon Valley,,,,
HOTEL SAINTE CLAIRE,302 S. MARKET ST.,-121.88807,37.330661,95126,,California,,,,Rich's Complete Guide to Silicon Valley,,,,
Houghton Mifflin Co.,"777 California Avenue, Palo Alto, CA",-122.1430031,37.4285379,,Palo Alto,California,,,,"Number of Employees and Value of Buildings in Stanford Industrial Park,' December 7, 1960, Folder 10, Frederick Terman Papers, SUA",,,,
Hughes Aircraft Co Semiconductor Division,"535 Middlefield Road, Palo Alto, CA",-122.1362592,37.4377862,,Palo Alto,California,,,,,,,,
IBM Corp.,1550 Page Mill Rd.,-122.14921,37.414567,94304,,California,,,,Rich's Complete Guide to Silicon Valley,,,,
IBM Corp.,1501 California Ave.,-122.151977,37.417686,94306,,California,,,,Rich's Complete Guide to Silicon Valley,,,,
IBM Corp.,1299 Orleans Ave.,-122.023851,37.371042,94086,,California,,,,Rich's Complete Guide to Silicon Valley,,,,
IBM CORP.,50 W. BROKAW RD.,-121.901914,37.338251,95110,,California,,,,Rich's Complete Guide to Silicon Valley,,,,
IBM CORP.,40 W. BROKAW RD.,-121.901914,37.338251,95110,,California,,,,Rich's Complete Guide to Silicon Valley,,,,
IBM CORP.,6331 SAN IGNACIO AVE.,-121.78142,37.237403,95119,,California,,,,Rich's Complete Guide to Silicon Valley,,,,
IBM CORP.,151 MARTINVALE LANE,-121.778458,37.229792,95119,,California,,,,Rich's Complete Guide to Silicon Valley,,,,
IBM CORP.,7071 REALM DR.,-121.776471,37.229188,95119,,California,,,,Rich's Complete Guide to Silicon Valley,,,,
IBM CORP.,6951 VIA DEL ORO,-121.775542,37.2304,95119,,California,,,,Rich's Complete Guide to Silicon Valley,,,,
IBM CORP.,50 W. BROKAW RD.,-121.901914,37.338251,95110,,California,,,,Rich's Complete Guide to Silicon Valley,,,,
IBM CORP.,40 W. BROKAW RD.,-121.901914,37.338251,95110,,California,,,,Rich's Complete Guide to Silicon Valley,,,,
IBM CORP.,6331 SAN IGNACIO AVE.,-121.78142,37.237403,95119,,California,,,,Rich's Complete Guide to Silicon Valley,,,,
IBM CORP.,151 MARTINVALE LANE,-121.778458,37.229792,95119,,California,,,,Rich's Complete Guide to Silicon Valley,,,,
IBM CORP.,7071 REALM DR.,-121.776471,37.229188,95119,,California,,,,Rich's Complete Guide to Silicon Valley,,,,
IBM CORP.,6951 VIA DEL ORO,-121.775542,37.2304,95119,,California,,,,Rich's Complete Guide to Silicon Valley,,,,
Iconix Inc,"945 Industrial, Palo Alto, CA",-122.099004236979,37.423523,,Palo Alto,California,,,,,,,,
Informix,,,,,,California,,,software,,,,,
INMAC,130 S. WOLFE RD.,-122.012022,37.370447,94086,,California,,,,Rich's Complete Guide to Silicon Valley,,,,
INMAC,911 McLAUGHLIN AVE.,-121.856571,37.335641,95122,,California,,,,Rich's Complete Guide to Silicon Valley,,,,
INMAC,911 McLAUGHLIN AVE.,-121.856571,37.335641,95122,,California,,,,Rich's Complete Guide to Silicon Valley,,,,
INTECH INC.,2270 MARTIN AVE.,-121.963425,37.367266,95050,,California,,,,Rich's Complete Guide to Silicon Valley,,,,
Intel,"365 E. Middlefield Rd, Mountain View, CA",-122.059598357664,37.3970896642336,,Mountain View,California,,,,,,,,
Intel (Aloha),,,,,,Oregon,1974,,chip manufacturing,"Dodds and Wollner, *The Silicon Frontier*, p. 61.",,,,
Intel (Santa Clara),,,,,,California,1957,,chip manufacturing,"Dodds and Wollner, *The Silicon Frontier*, p. 59.",,,,
INTEL CORP .,3601 JULIETTE LN.,-121.964529,37.384467,95050,,California,,,,Rich's Complete Guide to Silicon Valley,,,,
INTEL CORP .,3000 OAKMEAD VILLAGE CT.,-121.980068,37.375961,95051,,California,,,,Rich's Complete Guide to Silicon Valley,,,,
Intel Corp.,1302 N. Mathilda Ave.,-122.025061,37.414585,94086,,California,,,,Rich's Complete Guide to Silicon Valley,,,,
Intel Corp.,376 Caribbean Dr.,-122.009773,37.415849,94086,,California,,,,Rich's Complete Guide to Silicon Valley,,,,
Intel Corp.,1350 Bordeaux Dr.,-122.02164,37.41534,94086,,California,,,,Rich's Complete Guide to Silicon Valley,,,,
INTEL CORP.,3200 LAKESIDE DR.,-121.984329,37.387412,95051,,California,,,,Rich's Complete Guide to Silicon Valley,,,,
INTEL CORP.,3150 CENTRAL EXP.,-121.985442,37.377607,95051,,California,,,,Rich's Complete Guide to Silicon Valley,,,,
INTEL CORP.,2880 NORTHWESTERN PKW.,-121.972041,37.373432,95051,,California,,,,Rich's Complete Guide to Silicon Valley,,,,
INTEL CORP.,1766 JUNCTION AVE.,-121.906532,37.377319,95112,,California,,,,Rich's Complete Guide to Silicon Valley,,,,
Interail (GE),"1276 Hammerwood Ave, Sunnyvale, CA",-121.9904768,37.4063525,,Sunnyvale,California,,,,,,,,
Interdesign Inc./Ferranti,1255 Reamwood Ave.,-121.988545,37.405668,94086,,California,,,,Rich's Complete Guide to Silicon Valley,,,,
Intersil Inc.,1273 Hammerwood Ave.,-121.990412,37.407927,94086,,California,,,,Rich's Complete Guide to Silicon Valley,,,,
INTERSIL INC.,3250 SCOTT BLVD.,-121.971968,37.379667,95051,,California,,,,Rich's Complete Guide to Silicon Valley,,,,
ISD,3205 CORONADO DR.,-121.974475,37.378558,95051,,California,,,,Rich's Complete Guide to Silicon Valley,,,,
ISS SPERRY UNIVAC,10501 N. TANTAU AVE.,-122.005853,37.329832,95014,,California,,,,Rich's Complete Guide to Silicon Valley,,,,
Itek Corp,"2626 Hanover Street, Palo Alto, CA",-122.148723833846,37.4176305,,Palo Alto,California,,,,"Number of Employees and Value of Buildings in Stanford Industrial Park,' December 7, 1960, Folder 10, Frederick Terman Papers, SUA",,,,
Jasco Chemical Corp.,1090 Terra Bella Ave  ,-122.075217222222,37.408532,,,California,,,,,,,,
Jasco Chemical Corp.,"1710 Villa St, Mountain View, CA",-122.089500411605,37.3980853059665,,Mountain View,California,,,,,,,,
Johnson Red Electronics,"3311 Park Blvd, Palo Alto, CA",,,,Palo Alto,California,,,,,,,,
Kaiser Aircraft and Electronics Corp,"850 San Antonio Road, Palo Alto, CA",,,,Palo Alto,California,,,electrical manufacturing,,,,,
Kaiser Aircraft and Electronics Corp,"850 San Antonio Road, Palo Alto, CA",,,,Palo Alto,California,,,,,,,,
KAISER ELECTRONICS,2701 ORCHARD PKWY.,-121.933014,37.38619,95134,,California,,,,Rich's Complete Guide to Silicon Valley,,,,
Kane Engineering Laboratories,"845 Commercial, Palo Alto, CA",-122.100622497358,37.422195,,Palo Alto,California,,,,,,,,
Kearfott Co Inc,"991 Commercial, Palo Alto, CA",-122.100223411729,37.42496,,Palo Alto,California,,,,,,,,
KENNEDY,151 ALBRIGHT WAY,-121.963216,37.2574,95030,,California,,,,Rich's Complete Guide to Silicon Valley,,,,
Knapic Electro-Physics Inc,"936 Industrial, Palo Alto, CA",-122.098342010349,37.4232,,Palo Alto,California,,,,,,,,
Kollsman Instrument Corp,"800 Welch Road, Palo Alto, CA",-122.177263446286,37.437235,,Palo Alto,California,,,,,,,,
KULICKE &. SOFFA IND.,2210 MARTIN AVE .,-121.963426,37.366911,95050,,California,,,,Rich's Complete Guide to Silicon Valley,,,,
Lattice International,,,,,,Oregon,1983,,chip manufacturing,,,,,
Leach Corp,"814 San Antonio Road, Palo Alto, CA",-122.101438042331,37.4206715,,Palo Alto,California,,,,,,,,
Levinthal Electronic Products Indc,"3180 Hanover Street, Palo Alto, CA",-122.1464616,37.4141881,,Palo Alto,California,,,,"Number of Employees and Value of Buildings in Stanford Industrial Park,' December 7, 1960, Folder 10, Frederick Terman Papers, SUA",,,,
Liberty Flight Electronics Corp,"2443 Ash Road, Palo Alto, CA",,,,Palo Alto,California,,,,,,,,
Linear Technology,,,,,,California,,,chip manufacturing,,,,,
Link Division General Precision Inc,"1451 California Avenue, Palo Alto, CA",-122.151025435808,37.41769545,,Palo Alto,California,,,,"Number of Employees and Value of Buildings in Stanford Industrial Park,' December 7, 1960, Folder 10, Frederick Terman Papers, SUA",,,,
LOCKHEED,PLUMERIA DR. BLDG. 513,-121.92971,37.392179,95134,,California,,,,Rich's Complete Guide to Silicon Valley,,,,
Lockheed Aircraft Corporation (Missile & Space Division),"3251 Hanover Street, Palo Alto, CA",-122.142803965978,37.412548,,Palo Alto,California,,,,"Number of Employees and Value of Buildings in Stanford Industrial Park,' December 7, 1960, Folder 10, Frederick Terman Papers, SUA",,,,
Lockheed-Laboratory,3251 Hanover St.,-122.14481,37.411911,94304,,California,,,,Rich's Complete Guide to Silicon Valley,,,,
LSI Logic,,,,,,California,,,chip manufacturing,,,,,
LYNCH CIRCUITS INC.,41588 W. EVELYN AVE.,-122.052359,37.38557,94086,,California,,,,Rich's Complete Guide to Silicon Valley,,,,
MACHINE TECHNOLOGY WEST INC.,3350 SCOTT BLVD . #1503,-121.983924,37.380462,95051,,California,,,,Rich's Complete Guide to Silicon Valley,,,,
MacNeal-Schwendler,,,,,,California,,,software,,,,,
Magnetic Industries Inc,"931 Commercial, Palo Alto, CA",-122.1004541,37.4233959,,Palo Alto,California,,,,,,,,
MAGNEX CORP.,6541 VIA DEL ORO,-121.786026,37.236653,95119,,California,,,,Rich's Complete Guide to Silicon Valley,,,,
MAGNEX CORP.,6541 VIA DEL ORO,-121.786026,37.236653,95119,,California,,,,Rich's Complete Guide to Silicon Valley,,,,
Mandrel Industries Inc,"800 Welch Road, Palo Alto, CA",-122.177263446286,37.437235,,Palo Alto,California,,,,,,,,
Mardix ,"2115 El Camino Real, Palo Alto, CA",-122.1714662,37.4467864,,Palo Alto,California,,,,,,,,
Marine Electronics,"720 La Para, Palo Alto, CA",-122.1323506,37.4130555,,Palo Alto,California,,,,,,,,
Master Wholesale Electronics,"136 Hamilton, Palo Alto, CA",-122.162217503035,37.4430374565938,,Palo Alto,California,,,,,,,,
McDonnell Douglas Elect. Corp.,1057 Meadow Circle,-122.109,37.431,94303,,California,,,,Rich's Complete Guide to Silicon Valley,,,,
McDonnell Douglas Elect. Corp.,1057 E. Meadow Circle,-122.109471,37.431188,94303,,California,,,,Rich's Complete Guide to Silicon Valley,,,,
McGraw-Edison Co,"936 Commercial, Palo Alto, CA",-122.099703912146,37.423457,,Palo Alto,California,,,,,,,,
MEGATEST INC.,3940 FREEDOM CIRCLE,-121.97068,37.38597,95054,,California,,,,Rich's Complete Guide to Silicon Valley,,,,
Melabs,"3300 Hillview, Palo Alto, CA",-122.145865975574,37.4068925,,Palo Alto,California,,,,"Number of Employees and Value of Buildings in Stanford Industrial Park,' December 7, 1960, Folder 10, Frederick Terman Papers, SUA",,,,
MEMOREX CORP.,18922 FORGE DR.,-122.003261,37.335852,95014,,California,,,,Rich's Complete Guide to Silicon Valley,,,,
MEMOREX CORP.,2800 BOWERS AVE.,-121.977402,37.372108,95051,,California,,,,Rich's Complete Guide to Silicon Valley,,,,
MEMOREX CORP.,2054 MARTIN AVE,-121.960833,37.366247,95050,,California,,,,Rich's Complete Guide to Silicon Valley,,,,
MEMOREX CORP.,1040 DI GULLO AVE.,-121.948812,37.345983,95050,,California,,,,Rich's Complete Guide to Silicon Valley,,,,
MEMOREX CORP.,1200 MEMOREX DR. (95052),-121.954093,37.362532,95050,,California,,,,Rich's Complete Guide to Silicon Valley,,,,
MEMOREX CORP.,1200 MEMOREX DR. (95052),-121.954093,37.362532,95050,,California,,,,Rich's Complete Guide to Silicon Valley,,,,
MEMOREX CORP.,1200 MEMOREX DR . (95052),-121.954093,37.362532,95050,,California,,,,Rich's Complete Guide to Silicon Valley,,,,
MEMORY DISC MFG.,4255 BURTON DR.,-121.96275,37.389867,95050,,California,,,,Rich's Complete Guide to Silicon Valley,,,,
Mentor Graphics,,,,,,Oregon,1981,,hardware manufacturing,"Dodds and Wollner, *The Silicon Frontier*, p. 66.",,,,
Merlin Engineering WOrks,"1880 Embarcadero Road, Palo Alto, CA",,,,Palo Alto,California,,,,Rich's Complete Guide to Silicon Valley,,,,
Metheus Corporation,,,,,,Oregon,1981,,software,"Dodds and Wollner, *The Silicon Frontier*, p. 73.",,,,
Micro D Inc,,,,,,California,,,software,,,,,
Micro Magnetic Industry,"180 Walter Hays, Palo Alto, CA",,,,Palo Alto,California,,,,,,,,
MICRO POWER SYSTEMS,3100 ALFRED ST.,-121.958607,37.378248,95051,,California,,,,Rich's Complete Guide to Silicon Valley,,,,
Micropolis Corp,,,,,,California,,,hardware manufacturing,,,,,
Micropro International Corp,,,,,,California,,,software,,,,,
Microsemi,,,,,,California,,,chip manufacturing,,,,,
Microsoft,,,,,,Washington,,,software,,,,,
Microwave Electronics Corp,"4061 Transport, Palo Alto, CA",-122.098839,37.4250419,,Palo Alto,California,,,,,,,,
Moffett Naval Air Station  ,"158 Cody Rd, Mountain View, CA",,,,Mountain View,California,,,,,,,,
MONOLITHIC MEMORIES,1165 ARQUES AVE.,-121.997864,37.380498,94086,,California,,,,Rich's Complete Guide to Silicon Valley,,,,
MONOSIL,975 COMSTOCK ST.,-121.951259,37.37483,95051,,California,,,,Rich's Complete Guide to Silicon Valley,,,,
MOORE SYSTEMS INC.,1730 TECHNOLOGY DR.,-121.917374,37.365735,95110,,California,,,,Rich's Complete Guide to Silicon Valley,,,,
MOORE SYSTEMS INC.,1730 TECHNOLOGY DR.,-121.917374,37.365735,95110,,California,,,,Rich's Complete Guide to Silicon Valley,,,,
MOSTEK CORP.,1762 TECHNOLOGY DR. #126,-121.919839,37.369073,95110,,California,,,,Rich's Complete Guide to Silicon Valley,,,,
MOSTEK CORP.,1762 TECHNOLOGY DR. #126,-121.919839,37.369073,95110,,California,,,,Rich's Complete Guide to Silicon Valley,,,,
MOTHER LODE,155 MILLER AVE.,-122.013349,37.31422,95014,,California,,,,Rich's Complete Guide to Silicon Valley,,,,
N.C.A. CORP.,1263 OAKMEAD PARKWAY,-121.991082,37.386878,94086,,California,,,,Rich's Complete Guide to Silicon Valley,,,,
National Advanced Systems,140 Caribbean Dr.,-122.017877,37.417186,94086,,California,,,,Rich's Complete Guide to Silicon Valley,,,,
NATIONAL CSS INC.,1333 LAWRENCE EXP. #350,-121.995899,37.349318,95051,,California,,,,Rich's Complete Guide to Silicon Valley,,,,
National Research Corporation,"941 Charleston Road, Palo Alto, CA",,,,Palo Alto,California,,,,,,,,
National Semiconductor Corp.,675 ALMANOR AVE .,-122.032891,37.397703,94086,,California,,,chip manufacturing,Rich's Complete Guide to Silicon Valley,,,,
National Semiconductor Corp.,1125 KIFER RD .,-121.999847,37.373904,94086,,California,,,chip manufacturing,Rich's Complete Guide to Silicon Valley,,,,
National Semiconductor Corp.,1177 KERN AVE .,-121.997594,37.382591,94086,,California,,,chip manufacturing,Rich's Complete Guide to Silicon Valley,,,,
National Semiconductor Corp.,1050 DUANE AVE.,-121.952363,37.378557,94086,,California,,,,Rich's Complete Guide to Silicon Valley,,,,
National Semiconductor Corp.,,,,,,California,,,chip manufacturing,,,,,
National Semiconductor Corp.,"201 Town & Country Village, Palo Alto, CA",1.8774979,7.7227067,,,California,,,,,,,,
NEC Electronics,"501 Ellis St, Mountain View, CA",-122.051983055367,37.4011407785331,,Mountain View,California,,,,,,,,
Nickerson-Gray & Associates Inc,"2434 Park Blvd, Palo Alto, CA",,,,Palo Alto,California,,,,,,,,
NORTHERN TELECOM INC.,2305 MISSION COLLEGE BLV.,-121.935679,37.34357,95050,,California,,,,Rich's Complete Guide to Silicon Valley,,,,
NORTHERN TELECOM INC.,4101 BURTON DR.,-121.961979,37.391322,95050,,California,,,,Rich's Complete Guide to Silicon Valley,,,,
Osborne Electronics Sales Corp,"535 Middlefield Road, Palo Alto, CA",-122.1362592,37.4377862,,Palo Alto,California,,,,,,,,
Pacific Electro-Magnetic Co,"940 Commercial, Palo Alto, CA",-122.0997117,37.4235725,,Palo Alto,,,,,,,,,
Pacific International Electronics Inc,"535 Ramona, Palo Alto, CA",-122.1615312,37.4449789,,Palo Alto,,,,,,,,,
Palo Alto Engineering Co,"620 Page Mill Road, Palo Alto, CA",-122.1453646,37.4221802,,Palo Alto,California,,,,"Number of Employees and Value of Buildings in Stanford Industrial Park,' December 7, 1960, Folder 10, Frederick Terman Papers, SUA",,,,
Palomar Scientific Corp,"4039 Transport, Palo Alto, CA",-122.0994887,37.4256912,,Palo Alto,,,,,,,,,
Pearson Electronics Inc,"707 Urban, Palo Alto, CA",-122.161649106516,37.4411033472099,,Palo Alto,,,,,,,,,
Pek Labs,"4024 Transport, Palo Alto, CA",-122.1004421,37.4255328,,Palo Alto,,,,,,,,,
Peninsula Electronic Supply,"3860 El Camino Real, Palo Alto, CA",-122.1714662,37.4467864,,Palo Alto,,,,,,,,,
Perkin-Elmer,2288 Charleston Rd.,-122.095233,37.421481,94043,,California,,,,Rich's Complete Guide to Silicon Valley,,,,
Perkin-Elmer,411 Clyde Ave,-122.047161,37.396365,94043,,California,,,,Rich's Complete Guide to Silicon Valley,,,,
Perlmuth Electronic Associates,"941 Charleston Road, Palo Alto, CA",,,,Palo Alto,,,,,,,,,
Philco Corp,"3875 Fabian Way, Palo Alto, CA",-122.102457572274,37.4256845,,Palo Alto,,,,,,,,,
Pic. Tel. & Tel. Co.,"850 Hansen Way, Palo Alto, CA",-122.14065763713,37.41860795,,Palo Alto,California,,,,"Number of Employees and Value of Buildings in Stanford Industrial Park,' December 7, 1960, Folder 10, Frederick Terman Papers, SUA",,,,
Planar Systems,,,,,,Oregon,1983,,hardware manufacturing,"Dodds and Wollner, *The Silicon Frontier*, p. 71.",,,,
PLATEAU 7,777 N. 1 ST ST.,-121.884247,37.324059,95126,,California,,,,Rich's Complete Guide to Silicon Valley,,,,
POLY MOLD TOOL & ENGR.,193 COMMERCIAL ST.,-122.008472,37.376027,94086,,California,,,,Rich's Complete Guide to Silicon Valley,,,,
Ponisteff Office Building,"SW Corner Hanover & California Avenue, Palo Alto, CA",,,,Palo Alto,California,,,non-industrial,"Number of Employees and Value of Buildings in Stanford Industrial Park,' December 7, 1960, Folder 10, Frederick Terman Papers, SUA",,,,
Power Designs Pacifics Inc.,3381 Miranda Ave.,-122.146485,37.404744,94304,,California,,,,Rich's Complete Guide to Silicon Valley,,,,
Preformed Line Products,"600 Hansen Way, Palo Alto, CA",-122.139436074612,37.4201235,,Palo Alto,,,,electrical manufacturing,Rich's Complete Guide to Silicon Valley,,,,
Preformed Line Products Co,"600 Hansen Way, Palo Alto, CA",-122.139436074612,37.4201235,,Palo Alto,California,,,,"Number of Employees and Value of Buildings in Stanford Industrial Park,' December 7, 1960, Folder 10, Frederick Terman Papers, SUA",,,,
PRINTEX CORP.,2501 WALSH AVE.,-121.973723,37.371288,95051,,California,,,,Rich's Complete Guide to Silicon Valley,,,,
PURPLE HEARTS VETERANS REHAB.,735 COLEMAN AVE.(95110),-121.91185,37.343191,95110,,California,,,,Rich's Complete Guide to Silicon Valley,,,,
PURPLE HEARTS VETERANS REHAB.,735 COLEMAN AVE.(95110),-121.91185,37.343191,95110,,California,,,,Rich's Complete Guide to Silicon Valley,,,,
R S Electronic Corp,"435 Portage Ave, Palo Alto, CA",-122.137390733413,37.421843,,Palo Alto,,,,,,,,,
RACAL-VADIC INC.,785 N. MARY AVE .,-122.035577,37.397359,94086,,California,,,,Rich's Complete Guide to Silicon Valley,,,,
RAPICOM,3001 ORCHARD PKWY.,-121.937463,37.392214,95134,,California,,,,Rich's Complete Guide to Silicon Valley,,,,
RAPICOM INC.,2972 STENDER SY.,-121.983486,37.346526,95051,,California,,,,Rich's Complete Guide to Silicon Valley,,,,
RAYTEK INC.,1201 SHAFFER RD.,-121.982566,37.230053,95030,,California,,,,Rich's Complete Guide to Silicon Valley,,,,
Raytheon,350 Ellis St.,-122.07431,37.38802,94042,,California,,,,Rich's Complete Guide to Silicon Valley,,,,
Raytheon,415 E. Middlefield Rd.,-122.056092,37.396411,94043,,California,,,,Rich's Complete Guide to Silicon Valley,,,,
RAYTHEON,2540 MISSION COLLEGE BLV.,-121.935679,37.34357,95050,,California,,,,Rich's Complete Guide to Silicon Valley,,,,
Raytheon Co.,"350 Ellis St, Mountain View, CA",-122.05345359047,37.397094409359,,Mountain View,California,,,,,,,,
RGM Sys.,1250 Borregas Ave.,-122.018874,37.40903,94086,,California,,,,Rich's Complete Guide to Silicon Valley,,,,
RICOH OF AMERICA,2972 STENDER WY.,-121.97018,37.376405,95051,,California,,,,Rich's Complete Guide to Silicon Valley,,,,
ROLM CORP.,1 RIVER OAKS PLACE,-121.941346,37.401171,95134,,California,,,,Rich's Complete Guide to Silicon Valley,,,,
Romic Chemical Corp.,"2081 Bay Rd, Palo Alto, CA",,,,Palo Alto,California,,,,,,,,
S.R.D. LABS INC.,381 McGLINCEY LANE,-121.942492,37.276481,95008,,California,,,,Rich's Complete Guide to Silicon Valley,,,,
SANDPIPER,21255 STEVENS CREEK BLVD,-122.046197,37.322948,95014,,California,,,,Rich's Complete Guide to Silicon Valley,,,,
"Scott, Foresman & Co.","655 California Ave, Palo Alto, CA",-122.1430031,37.4285379,,Palo Alto,California,,,,"Number of Employees and Value of Buildings in Stanford Industrial Park,' December 7, 1960, Folder 10, Frederick Terman Papers, SUA",,,,
Seagate Technology,,,,,,California,,,hardware manufacturing,,,,,
Seiko Circuits Inc.,415 Clyde Ave,-122.047132,37.39645,94043,,California,,,,Rich's Complete Guide to Silicon Valley,,,,
SEIKO CIRCUITS INC.,415 CLYDE AVE .,-122.047132,37.39645,94086,,California,,,,Rich's Complete Guide to Silicon Valley,,,,
Shigma Inc.,1400 Stierlin Rd.,-122.078119,37.40955,94043,,California,,,,Rich's Complete Guide to Silicon Valley,,,,
Shockley Transistor,"1117 California Ave, Palo Alto, CA",-122.149023672821,37.42035945,,Palo Alto,California,,,,"Number of Employees and Value of Buildings in Stanford Industrial Park,' December 7, 1960, Folder 10, Frederick Terman Papers, SUA",,,,
SIERRACIN,3010 OLCOTT ST.,-121.96733,37.376503,95051,,California,,,,Rich's Complete Guide to Silicon Valley,,,,
SIGNETICS CORP.,305 N. MATHILDA AVE.,-122.031798,37.385089,94086,,California,,,,Rich's Complete Guide to Silicon Valley,,,,
SIGNETICS CORP.,450 N. WOLFE RD.,-122.013567,37.383525,94086,,California,,,,Rich's Complete Guide to Silicon Valley,,,,
SIGNETICS CORP.,860 KIFER RD.,-122.010624,37.374593,94086,,California,,,,Rich's Complete Guide to Silicon Valley,,,,
SIGNETICS CORP.,830 STEWART DR.,-122.010732,37.383979,94086,,California,,,,Rich's Complete Guide to Silicon Valley,,,,
SIGNETICS CORP.,897 DE GUIGNE DR.,-122.007161,37.385487,94086,,California,,,,Rich's Complete Guide to Silicon Valley,,,,
SIGNETICS CORP.,897 STEWART DR.,-122.006398,37.383951,94086,,California,,,,Rich's Complete Guide to Silicon Valley,,,,
SIGNETICS CORP.,730 E. EVELYN AVE.,-122.016596,37.371681,94086,,California,,,,Rich's Complete Guide to Silicon Valley,,,,
SIGNETICS CORP.,1380 KIFER RD.,-121.977829,37.37412,95051,,California,,,,Rich's Complete Guide to Silicon Valley,,,,
SIGNETICS CORP.,3600 PETERSON WY.,-121.98415,37.38575,95051,,California,,,,Rich's Complete Guide to Silicon Valley,,,,
SIGNETICS CORP.,2251 LAWSON LN.,-121.963634,37.37603,95050,,California,,,,Rich's Complete Guide to Silicon Valley,,,,
Silectro Co,"4043 Transport, Palo Alto, CA",-122.0993679,37.4255394,,Palo Alto,,,,,,,,,
Silicon Systems,,,,,,California,,,chip manufacturing,,,,,
Siltec,"405 National Ave, Mountain View, CA",-122.0540173,37.4023661,,Mountain View,California,,,,,,,,
Siltec Corp.,405 National Ave.,-122.052194,37.40109,94043,,California,,,,Rich's Complete Guide to Silicon Valley,,,,
SINGER CO. / LINK DIV.,1077 E . ARQUES AVE.,-122.002266,37.380513,94086,,California,,,,Rich's Complete Guide to Silicon Valley,,,,
SNOWDEN-PENSER/PARK DAVIS CO.,1587 DELL AVE.,-121.956695,37.263754,95008,,California,,,,Rich's Complete Guide to Silicon Valley,,,,
Softsel Computer Products,,,,,,California,,,distribution,,,,,
Software Publishing,,,,,,California,,,software,,,,,
Solectron Corp.,1286 Lawrence Stat. Rd.,-121.996054,37.367105,94086,,California,,,,Rich's Complete Guide to Silicon Valley,,,,
SOLECTRON CORP.,4598 PATRICK HENRY DR .,-121.985015,37.397887,95014,,California,,,,Rich's Complete Guide to Silicon Valley,,,,
SOLECTRON CORP.,2001 FORTUNE DR.,-121.893318,37.401043,95131,,California,,,,Rich's Complete Guide to Silicon Valley,,,,
Sony Technology Center Inc,1003 Elwell Court,-122.104,37.431,94303,,California,,,,Rich's Complete Guide to Silicon Valley,,,,
Sony Technology Center Inc,1003 Elwell Court,-122.104051,37.431571,94303,,California,,,,Rich's Complete Guide to Silicon Valley,,,,
Spectra Physics,1250 W. Middlefield Rd  ,-122.080381695478,37.4073353462486,,,California,,,,,,,,
Spectra Physics Inc,1250 W. Middlefield Rd.,-122.079298,37.406946,94043,,California,,,,Rich's Complete Guide to Silicon Valley,,,,
Spectra Physics Inc,575 E. Middlefield Rd.,-122.052164,37.394789,94043,,California,,,,Rich's Complete Guide to Silicon Valley,,,,
SPERRY UNIVAC,967 MABORY RD.,-121.88084,37.362099,95133,,California,,,,Rich's Complete Guide to Silicon Valley,,,,
SPERRY UNIVAC,967 MABORY RD.,-121.88084,37.362099,95133,,California,,,,Rich's Complete Guide to Silicon Valley,,,,
Stacey J.W. Inc.,"2575 Hanover Street, Palo Alto, CA",-122.149519697059,37.4186482236763,,Palo Alto,California,,,,"Number of Employees and Value of Buildings in Stanford Industrial Park,' December 7, 1960, Folder 10, Frederick Terman Papers, SUA",,,,
STANFORD APPLIED ENG.,340 MARTIN AVE.,-121.937912,37.363015,95050,,California,,,,Rich's Complete Guide to Silicon Valley,,,,
Stanford Cleaners,"2875 El Camino Real, Palo Alto, CA",-122.140859915145,37.422987,,Palo Alto,California,,,,,,,,
Stanford Linear Accelerator (SLAC),"2575 Sandhill Rd, Stanford, CA",-122.215869,37.4203504,,Stanford,California,,,,,,,,
Stanford Nuclear Technology Lab,Stanford Avenuear near Foothill,,,,Palo Alto,California,,,,"Number of Employees and Value of Buildings in Stanford Industrial Park,' December 7, 1960, Folder 10, Frederick Terman Papers, SUA",,,,
STC-COMPUTER RESEARCH,3450 CENTRAL EXP.,-121.992671,37.377572,95051,,California,,,,Rich's Complete Guide to Silicon Valley,,,,
Stone Associates Inc,"825 San Antonio Road, Palo Alto, CA",-122.101455,37.4232759,,Palo Alto,,,,,,,,,
STORM PRODUCTS,3031 CORVIN DR.,-121.987857,37.376258,95051,,California,,,,Rich's Complete Guide to Silicon Valley,,,,
Syntex Corp.,2375 Charleston Rd.,-122.096541,37.421556,94043,,California,,,,Rich's Complete Guide to Silicon Valley,,,,
SYSTEM DEVELOPMENT CORP .,500 MACARA AVE.,-122.04183,37.393589,94086,,California,,,,Rich's Complete Guide to Silicon Valley,,,,
Syva,1390 Shorebird Way,-122.076944,37.418518,94043,,California,,,,Rich's Complete Guide to Silicon Valley,,,,
Syva Co.,900 Hansen Way,-122.140259,37.418192,94306,,California,,,,Rich's Complete Guide to Silicon Valley,,,,
SYVA CO.,20400 MARIANI AVE.,-122.029122,37.330532,95014,,California,,,,Rich's Complete Guide to Silicon Valley,,,,
T.R.W. SYSTEMS,11-1 5 E. ARQUES AVE.,-122.023851,37.371042,94086,,California,,,,Rich's Complete Guide to Silicon Valley,,,,
T.R.W. SYSTEMS,460 OAKMEAD PARKWAY,-121.988075,37.382599,94086,,California,,,,Rich's Complete Guide to Silicon Valley,,,,
T.R.W./Vidar Corp.,77 Ortega Ave.,-122.102613,37.403712,94040,,California,,,,Rich's Complete Guide to Silicon Valley,,,,
TAB Products,1451 California Ave.,-122.151616,37.418106,94306,,California,,,,Rich's Complete Guide to Silicon Valley,,,,
TAB PRODUCTS,2390 ZANKER RD.,-121.922028,37.386359,95131,,California,,,,Rich's Complete Guide to Silicon Valley,,,,
Tandem Computers Inc.,1366 SANTA ANA CT.,-122.023851,37.371042,94086,,California,,,hardware manufacturing,Rich's Complete Guide to Silicon Valley,,,,
Tandem Computers Inc.,245 SANTA ANA CT.,-122.010541,37.379708,94086,,California,,,hardware manufacturing,Rich's Complete Guide to Silicon Valley,,,,
Tandem Computers Inc.,10300 TANTAU AVE.,-122.006288,37.326166,95014,Cupertino,California,,,hardware manufacturing,Rich's Complete Guide to Silicon Valley,,,,
Tandem Computers Inc.,19250 PRUNERIDGE AVE.,-122.009469,37.331911,95014,Cupertino,California,,,hardware manufacturing,Rich's Complete Guide to Silicon Valley,,,,
Tandem Computers Inc.,2450 WALSH AVE.,-121.971037,37.37008,95051,Sunyvale,California,,,hardware manufacturing,Rich's Complete Guide to Silicon Valley,,,,
Tandem Computers Inc.,3301 OLCOTT ST.,-121.966952,37.380314,95051,Sunnyvale,California,,,,Rich's Complete Guide to Silicon Valley,,,,
Tandon Corp,,,,,,California,,,hardware manufacturing,,,,,
Tech Ser Inc,"640 Donohoe, Palo Alto, CA",-122.1395072,37.4624938,,Palo Alto,,,,,,,,,
Technicraft Engineering Corp,"809 San Antonio Road, Palo Alto, CA",-122.1022081,37.4206677,,Palo Alto,,,,,,,,,
Tektronix Inc.,3003 BUNKER HILL LN.,-121.982279,37.405716,95014,,California,,,,Rich's Complete Guide to Silicon Valley,,,,
Tektronix Inc.,,,,,,Oregon,,,,,,,,
Teledyne MEC,"3176 Porter Dr, Palo Alto, CA",-122.149362060561,37.4070955,,Palo Alto,California,,,,,,,,
Teledyne Semiconductor,1300 Terra Bella Ave,-122.080064,37.409456,94043,,California,,,,Rich's Complete Guide to Silicon Valley,,,,
Telos Corp,,,,,,California,,,software,,,,,
TEXAS INSTRUMENTS,5353 BETSY ROSS DR.,-121.982001,37.408225,95014,,California,,,,Rich's Complete Guide to Silicon Valley,,,,
Texas Instruments,"317 Town & Country, Palo Alto, CA",1.8774979,7.7227067,,Palo Alto,California,,,,,,,,
The National Press,"850 Hansen Way, Palo Alto, CA",-122.14065763713,37.41860795,,Palo Alto,California,,,,"Number of Employees and Value of Buildings in Stanford Industrial Park,' December 7, 1960, Folder 10, Frederick Terman Papers, SUA",,,,
THOMAS AND BETTS CO.,1762 TECHNOLOGY DR.,-121.919839,37.369073,95110,,California,,,,Rich's Complete Guide to Silicon Valley,,,,
THOR ELECTRONICS,430 TRIMBLE RD.,-121.922108,37.390039,95131,,California,,,,Rich's Complete Guide to Silicon Valley,,,,
TOSHIBA SEMICONDUCTOR USA INC.,1220 MIDWAS WAY,-122.023851,37.371042,94086,,California,,,,Rich's Complete Guide to Silicon Valley,,,,
Trans Dynamics Inc,"44 Encina Ave, Palo Alto, CA",-122.160483898864,37.4390781818944,,Palo Alto,,,,,,,,,
Transition Electronic Corp,"535 Middlefield Road, Palo Alto, CA",-122.1362592,37.4377862,,Palo Alto,,,,,,,,,
TRIAD SYSTEMS CORP.,5403 BETSY ROSS DR.,-121.982004,37.408885,95014,,California,,,,Rich's Complete Guide to Silicon Valley,,,,
TYMSHARE INC.,10101 BUBB RD.,-122.051182,37.321501,95014,,California,,,,Rich's Complete Guide to Silicon Valley,,,,
ULTRATECH CORP./PHOTOMASK,2970 CORONADO DR.,-121.972561,37.37622,95051,,California,,,,Rich's Complete Guide to Silicon Valley,,,,
VARIAN - MICROWAVE COMP. DIV.,3200 PATRICK HENRY DR.,-121.982957,37.395904,95014,,California,,,,Rich's Complete Guide to Silicon Valley,,,,
Varian Associates,"601 California Ave, Palo Alto, CA",-122.1430031,37.4285379,,Palo Alto,California,1948,,electronics,Rich's Complete Guide to Silicon Valley,,,,
Varian Associates,380 Bernardo Ave,-122.050654,37.388785,94043,,California,,,,Rich's Complete Guide to Silicon Valley,,,,
Varian Associates,220 Humboldt Ct.,-122.018385,37.408159,94086,,California,,,,Rich's Complete Guide to Silicon Valley,,,,
Varian Associates,3251 OLCOTT ST.,-121.967275,37.379651,95051,,California,,,,Rich's Complete Guide to Silicon Valley,,,,
Varian Associates,3101 SCOTT BLVD .,-121.961966,37.377448,95050,,California,,,,Rich's Complete Guide to Silicon Valley,,,,
Varian Associates,"2185 Park Blvd, Palo Alto, CA",,,,Palo Alto,,,,,,,,,
Varian Associates,"611 Hansen Way, Palo Alto, CA",-122.138340315085,37.418411,,Palo Alto,California,,,,"Number of Employees and Value of Buildings in Stanford Industrial Park,' December 7, 1960, Folder 10, Frederick Terman Papers, SUA",,,,
VEECO/MACRONETICS INC.,585 N. MARY AVE.,-122.03705,37.393009,94086,,California,,,,Rich's Complete Guide to Silicon Valley,,,,
VERBATIM CORP.,675 PALOMAR AVE.,-122.034531,37.395045,94086,,California,,,,Rich's Complete Guide to Silicon Valley,,,,
Vidya Inc,"2626 Hanover Street, Palo Alto, CA",-122.148723833846,37.4176305,,Palo Alto,California,,,,"Number of Employees and Value of Buildings in Stanford Industrial Park,' December 7, 1960, Folder 10, Frederick Terman Papers, SUA",,,,
WANG LABORATORIES,3255-3D SCOTT BLVD.,-121.983478,37.346518,95051,,California,,,,Rich's Complete Guide to Silicon Valley,,,,
WATKINS-JOHNSON CO.,2525 N. 1ST ST.,-121.926143,37.383645,95131,,California,,,,Rich's Complete Guide to Silicon Valley,,,,
Watkins-Johnson Co.,"3333 Hillview Avenue, Palo Alto, CA",-122.145157,37.407483,,Palo Alto,California,,,,"Number of Employees and Value of Buildings in Stanford Industrial Park,' December 7, 1960, Folder 10, Frederick Terman Papers, SUA",,,,
Wavetek,875 Maude Ave,-122.048206,37.39597,94043,,California,,,,Rich's Complete Guide to Silicon Valley,,,,
Weatherford RVCs,"444 Page Mill Road, Palo Alto, CA",-122.141295279864,37.4238076734917,,Palo Alto,,,,,,,,,
WELLS FARGO ALARM SERVICE,466 VENDOME ST. (95110,-121.903391,37.341371,95110,,California,,,,Rich's Complete Guide to Silicon Valley,,,,
WELLS FARGO ALARM SERVICE,466 VENDOME ST. (95110,-121.903391,37.341371,95110,,California,,,,Rich's Complete Guide to Silicon Valley,,,,
Wells Fargo Bank American Trust Co,"505 California Avenue, Palo Alto, CA",-122.145781390956,37.4246779,,Palo Alto,California,,,non-industrial,"Number of Employees and Value of Buildings in Stanford Industrial Park,' December 7, 1960, Folder 10, Frederick Terman Papers, SUA",,,,
Western Microtech Inc.,,,,,,California,,,chip manufacturing,,,,,
Willfrom Co,"717 Loma Verde Ave, Palo Alto, CA",-122.1303844,37.4235164,,Palo Alto,,,,,,,,,
Wyse Technology,,,,,,California,,,hardware manufacturing,,,,,
Xerox P.A.R.C.,2500 Hanover St.,-122.14963,37.418602,94304,,California,,,,Rich's Complete Guide to Silicon Valley,,,,
Xerox P.A.R.C.,3333 Coyote Hill Rd.,-122.150382,37.40226,94304,,California,,,,Rich's Complete Guide to Silicon Valley,,,,
Xicor,,,,,,California,,,chip manufacturing,,,,,
XIDEX CORP.,3000 PATRICK HENRY DR.,-121.980082,37.395928,95014,,California,,,,Rich's Complete Guide to Silicon Valley,,,,
Yuba Consolidated Industries Inc,"1275 California Avenue, Palo Alto, CA",-122.1430031,37.4285379,,Palo Alto,California,,,,"Number of Employees and Value of Buildings in Stanford Industrial Park,' December 7, 1960, Folder 10, Frederick Terman Papers, SUA",,,,
Zoecon Rhone Poulec,"East Palo Alto, Palo Alto, CA",-122.11776865472,37.4636056082448,,Palo Alto,California,,,,,,,,
Zycon Corp,3445 KIFER RD.,-121.99106,37.374004,95051,,California,,,,Rich's Complete Guide to Silicon Valley,,,,
Computer Usage Co Inc,"3181 Porter Dr, Palo Alto, CA",-122.1492098,37.4080055,,Palo Alto,California,,,data processing,"Palo Alto Directory, 1956",,,,
Control Data Corp,"3260 Hillview Ave, Palo Alto, CA",-122.145967505208,37.4076985,,Palo Alto,California,,,data processing,"Palo Alto Directory, 1956",,,,
Control Data Corp,"3145 Porter Dr, Palo Alto, CA",-122.151078972952,37.4089785,,Palo Alto,California,,,data processing,"Palo Alto Directory, 1956",,,,
Control Data Corp,"3330 Hillview Ave, Palo Alto, CA",-122.145973621447,37.4059745,,Palo Alto,California,,,data processing,"Palo Alto Directory, 1956",,,,
Data International,"437 California Ave, Palo Alto, CA",-122.1430031,37.4285379,,Palo Alto,California,,,data processing,"Palo Alto Directory, 1956",,,,
Diversified Computer Applications,"516 University Ave, Palo Alto, CA",-122.158813243185,37.4485547485718,,Palo Alto,California,,,data processing,"Palo Alto Directory, 1956",,,,
Engineering Data Services,"499 Hamilton Ave, Palo Alto, CA",-122.158107,37.447463,,Palo Alto,California,,,data processing,"Palo Alto Directory, 1956",,,,
Intl Bush Mach Corp (Custom Eng Serv OFC) ,"701 Welch Road, Palo Alto, CA",-122.172683,37.436904,,Palo Alto,California,,,data processing,"Palo Alto Directory, 1956",,,,
Medac System of San Francisco,"800 San Antonio Road, Palo Alto, CA",-122.1015364,37.4202915,,Palo Alto,California,,,data processing,"Palo Alto Directory, 1956",,,,
Richardson C and E Associates,"201 Town & Country Road, Palo Alto, CA",1.8774979,7.7227067,,Palo Alto,California,,,data processing,"Palo Alto Directory, 1956",,,,
Service Bureau Corp,"2450 Watson Ct, Palo Alto, CA",-122.120664046568,37.448044,,Palo Alto,California,,,data processing,"Palo Alto Directory, 1956",,,,
Techdata Subsidiary of L C Cole Co Inc,"2905 El Camino Real, Palo Alto, CA",-122.140617220864,37.4226375,,Palo Alto,California,,,data processing,"Palo Alto Directory, 1956",,,,
Advance Transformer Co,"303 Portage Ave, Palo Alto, CA",-122.1379573,37.4217382,,Palo Alto,California,,,electrical equipment and supplies manufacturers ,"Palo Alto Directory, 1956",,,,
ITT Cannon Electric Co (Disc Sls Ofc),"960 San Antonio Road, Palo Alto, CA",-122.101226289453,37.4255222022728,,Palo Alto,California,,,electrical equipment and supplies manufacturers ,"Palo Alto Directory, 1956",,,,
Macronetics Inc,"220 California Ave, Palo Alto, CA",-122.14065896175,37.4311921984257,,Palo Alto,California,,,electrical equipment and supplies manufacturers ,"Palo Alto Directory, 1956",,,,
Preformed Line Products Co,"600 Hansen Way, Palo Alto, CA",-122.139436074612,37.4201235,,Palo Alto,California,,,electrical equipment and supplies manufacturers ,"Palo Alto Directory, 1956",,,,
AMP Inc,"4151 Middlefield Road, Palo Alto, CA",-122.104396416287,37.4172031,,Palo Alto,California,,,electrical equipment and supplies ,"Palo Alto Directory, 1956",,,,
Alfred Electronics of Palo Alto,"3176 Porter Dr, Palo Alto, CA",-122.149362060561,37.4070955,,Palo Alto,California,,,electrical equipment and supplies ,"Palo Alto Directory, 1956",,,,
Allen Electronic Corp,"930 Industrial Ave, Palo Alto, CA",-122.098339326426,37.4230315,,Palo Alto,California,,,electrical equipment and supplies ,"Palo Alto Directory, 1956",,,,
Alpar Manufacturing Corp,"220 Demeter St, Palo Alto, CA",,,,Palo Alto,California,,,electrical equipment and supplies ,"Palo Alto Directory, 1956",,,,
Alto Scientific Co Inc,"4083 Transport St, Palo Alto, CA",-122.098444966008,37.424613,,Palo Alto,California,,,electrical equipment and supplies ,"Palo Alto Directory, 1956",,,,
Ampex Corporation - Technical Library,"401 Broadway, Redwood City, CA",-122.2413422,37.485867,,Redwood City,California,,,electrical equipment and supplies ,"Palo Alto Directory, 1956",,,,
Andrew Corp,"701 Welch Rd, Palo Alto, CA",-122.172683,37.436904,,Palo Alto,California,,,electrical equipment and supplies ,"Palo Alto Directory, 1956",,,,
Applied Space Products Inc,"625 San Antonio Rd, Palo Alto, CA",,,,Palo Alto,California,,,electrical equipment and supplies ,"Palo Alto Directory, 1956",,,,
Bahrs Industries ,"2626 Hanover St, Palo Alto, CA",-122.148723833846,37.4176305,,Palo Alto,California,,,electrical equipment and supplies ,"Palo Alto Directory, 1956",,,,
Barrett Electronics Corp (Western Division),"895 Commercial St, Palo Alto, CA",-122.1005801,37.4228106,,Palo Alto,California,,,electrical equipment and supplies ,"Palo Alto Directory, 1956",,,,
Barry Research,"800 Welch Rd, Palo Alto, CA",-122.177263446286,37.437235,,Palo Alto,California,,,electrical equipment and supplies ,"Palo Alto Directory, 1956",,,,
Branson Instrument Inc,"201 Town & Country Village, Palo Alto, CA",1.8774979,7.7227067,,Palo Alto,California,,,electrical equipment and supplies ,"Palo Alto Directory, 1956",,,,
Circuit Engineering,"4024 Transport St, Palo Alto, CA",-122.1004421,37.4255328,,Palo Alto,California,,,electrical equipment and supplies ,"Palo Alto Directory, 1956",,,,
Clevite Corporation (Semiconductor division),"1801 Page Mill Road, Palo Alto, CA",-122.1407349,37.4244998,,Palo Alto,California,,,electrical equipment and supplies ,"Palo Alto Directory, 1956",,,,
Cohu Electronics Inc (Kintel Division),"406 Channing Ave, Palo Alto, CA",-122.15515645101,37.4440527099542,,Palo Alto,California,,,electrical equipment and supplies ,"Palo Alto Directory, 1956",,,,
Components for Research Inc,"979 Commercial St, Palo Alto, CA",-122.100269828221,37.4246115,,Palo Alto,California,,,electrical equipment and supplies ,"Palo Alto Directory, 1956",,,,
Continental Device Corp,"862 San Antonio Rd, Palo Alto, CA",-122.102804254098,37.424265,,Palo Alto,California,,,electrical equipment and supplies ,"Palo Alto Directory, 1956",,,,
Corbin-Farnsworth Inc,"440 Page Mill Rd, Palo Alto, CA",-122.141250300603,37.423860149296,,Palo Alto,California,,,electrical equipment and supplies ,"Palo Alto Directory, 1956",,,,
Cornell Dubilier Electronics,"701 Welch Rd, Palo Alto, CA",-122.172683,37.436904,,Palo Alto,California,,,electrical equipment and supplies ,"Palo Alto Directory, 1956",,,,
Data Disc Inc,"1275 California Ave, Palo Alto, CA",-122.1430031,37.4285379,,Palo Alto,California,,,electrical equipment and supplies ,"Palo Alto Directory, 1956",,,,
Data Pathing Inc,"490 San Antonio Rd, Palo Alto, CA",-122.104386163843,37.4135898835005,,Palo Alto,California,,,electrical equipment and supplies ,"Palo Alto Directory, 1956",,,,
Diotran Pacific,"4151 Middlefield Rd, Palo Alto, CA",-122.104396416287,37.4172031,,Palo Alto,California,,,electrical equipment and supplies ,"Palo Alto Directory, 1956",,,,
Dymec A Division of Hewlett-Packard Co,"395 Page Mill Rd, Palo Alto, CA",-122.1393686,37.4257063,,Palo Alto,California,,,electrical equipment and supplies ,"Palo Alto Directory, 1956",,,,
Edex Teaching Systems,"3940 Fabian Way, Palo Alto, CA",-122.104653084362,37.423736,,Palo Alto,California,,,electrical equipment and supplies ,"Palo Alto Directory, 1956",,,,
Electro Motive Mfg Co,"1015 Corporation Way, Palo Alto, CA",-122.1028185,37.4313255,,Palo Alto,California,,,electrical equipment and supplies ,"Palo Alto Directory, 1956",,,,
Electromagnetic Technology Corp,"925 E Meadow Dr, Palo Alto, CA",-122.107721040134,37.4286625,,Palo Alto,California,,,electrical equipment and supplies ,"Palo Alto Directory, 1956",,,,
Electromagnetic Technology Corp,"1375 California Ave, Palo Alto, CA",-122.151025371725,37.4186677962579,,Palo Alto,California,,,electrical equipment and supplies ,"Palo Alto Directory, 1956",,,,
Electronic Associates Inc,"4151 Middlefield Rd, Palo Alto, CA",-122.104396416287,37.4172031,,Palo Alto,California,,,electrical equipment and supplies ,"Palo Alto Directory, 1956",,,,
Endevco Corp (SLS OFC),"1890 Embarcadero Rd, Palo Alto, CA",-122.113978507707,37.4526575,,Palo Alto,California,,,electrical equipment and supplies ,"Palo Alto Directory, 1956",,,,
Energy Systems Inc,"3180 Hanover St, Palo Alto, CA",-122.1464616,37.4141881,,Palo Alto,California,,,electrical equipment and supplies ,"Palo Alto Directory, 1956",,,,
Erie Technological Products Inc,"415 Cambridge Ave, Palo Alto, CA",-122.145647008039,37.4266003,,Palo Alto,California,,,electrical equipment and supplies ,"Palo Alto Directory, 1956",,,,
Fairchild Semiconductor Corp,"384 Cambridge Ave, Palo Alto, CA",-122.1457916,37.4274821,,Palo Alto,California,,,electrical equipment and supplies ,"Palo Alto Directory, 1956",,,,
Fairchild Semiconductor Corp,"4030 Fabian Way, Palo Alto, CA",-122.1042399,37.4258394,,Palo Alto,California,,,electrical equipment and supplies ,"Palo Alto Directory, 1956",,,,
Fisher Research Laboratory Inc,"1975 University Ave, Palo Alto, CA",-122.1640529,37.4433673,,Palo Alto,California,,,electrical equipment and supplies ,"Palo Alto Directory, 1956",,,,
Fisher Switches Inc,"3199 Park Blvd, Palo Alto, CA",,,,Palo Alto,California,,,electrical equipment and supplies ,"Palo Alto Directory, 1956",,,,
General Electric Co (Power Tube & Microwave Dept),"601 California Ave, Palo Alto, CA",-122.1430031,37.4285379,,Palo Alto,California,,,electrical equipment and supplies ,"Palo Alto Directory, 1956",,,,
General Electric Co (Receiving Tube Dept),"701 Welch Rd, Palo Alto, CA",-122.172683,37.436904,,Palo Alto,California,,,electrical equipment and supplies ,"Palo Alto Directory, 1956",,,,
General Electric Co (Defense Program Div),"701 Welch Rd, Palo Alto, CA",-122.172683,37.436904,,Palo Alto,California,,,electrical equipment and supplies ,"Palo Alto Directory, 1956",,,,
General Electronic Laboratory,"1015 Corporation Way, Palo Alto, CA",-122.1028185,37.4313255,,Palo Alto,California,,,electrical equipment and supplies ,"Palo Alto Directory, 1956",,,,
General Indicator Corp,"770 Welch Rd, Palo Alto, CA",-122.176108950241,37.438155,,Palo Alto,California,,,electrical equipment and supplies ,"Palo Alto Directory, 1956",,,,
Granger Associates,"1601 California Ave, Palo Alto, CA",-122.152181568182,37.4159835,,Palo Alto,California,,,electrical equipment and supplies ,"Palo Alto Directory, 1956",,,,
Grebmeier Mfg. Co.,"4151 Middlefield Rd, Palo Alto, CA",-122.104396416287,37.4172031,,Palo Alto,California,,,electrical equipment and supplies ,"Palo Alto Directory, 1956",,,,
Gulton Industries,"201 Town & Country Village, Palo Alto, CA",1.8774979,7.7227067,,Palo Alto,California,,,electrical equipment and supplies ,"Palo Alto Directory, 1956",,,,
Hewlett-Packard-Delcon Division,"943 Industrial Ave, Palo Alto, CA",-122.0990143,37.423557,,Palo Alto,California,,,electrical equipment and supplies ,"Palo Alto Directory, 1956",,,,
Hoffman Electronics Corp,"378 Cambridge Ave, Palo Alto, CA",-122.145595477577,37.4274661,,Palo Alto,California,,,electrical equipment and supplies ,"Palo Alto Directory, 1956",,,,
Hu-Mac Inc,"2425 Pulgas Ave, Palo Alto, CA",,,,Palo Alto,California,,,electrical equipment and supplies ,"Palo Alto Directory, 1956",,,,
Hughes Aircraft Semiconductor Division,"535 Middlefield Rd, Palo Alto, CA",-122.1157981,37.4248921,,Palo Alto,California,,,electrical equipment and supplies ,"Palo Alto Directory, 1956",,,,
Johnson Red Electronics,"3311 Park Blvd, Palo Alto, CA",,,,Palo Alto,California,,,electrical equipment and supplies ,"Palo Alto Directory, 1956",,,,
Kaiser Aerospace & Electronics (DIv of Kaiser Inc),"1681 Page Mill Rd, Palo Alto, CA",-122.1407349,37.4244998,,Palo Alto,California,,,electrical equipment and supplies ,"Palo Alto Directory, 1956",,,,
Kane Engineering Laboratories,"1060 E. Meadow Circle, Palo Alto, CA",-122.110078169944,37.43115175,,Palo Alto,California,,,electrical equipment and supplies ,"Palo Alto Directory, 1956",,,,
Kearfott Division of General Precision Inc,"991 Commercial St, Palo Alto, CA",-122.100223411729,37.42496,,Palo Alto,California,,,electrical equipment and supplies ,"Palo Alto Directory, 1956",,,,
Keithley Instruments,"825 San Antonio Rd, Palo Alto, CA",-122.1017652,37.4276246,,Palo Alto,California,,,electrical equipment and supplies ,"Palo Alto Directory, 1956",,,,
Lasa Electric Co,"2902 Ash St, Palo Alto, CA",-122.140793100534,37.4244111222816,,Palo Alto,California,,,electrical equipment and supplies ,"Palo Alto Directory, 1956",,,,
Leach Corp,"814 San Antonio Rd, Palo Alto, CA",-122.101438042331,37.4206715,,Palo Alto,California,,,electrical equipment and supplies ,"Palo Alto Directory, 1956",,,,
Ling-Temco-Vought Inc,"701 Welch Rd, Palo Alto, CA",-122.172683,37.436904,,Palo Alto,California,,,electrical equipment and supplies ,"Palo Alto Directory, 1956",,,,
MVR Corp,"470 San Antonio Rd, Palo Alto, CA",,,,Palo Alto,California,,,electrical equipment and supplies ,"Palo Alto Directory, 1956",,,,
Microwave Electronics Corp,"3165 Porter Dr, Palo Alto, CA",-122.14985490364,37.40866645,,Palo Alto,California,,,electrical equipment and supplies ,"Palo Alto Directory, 1956",,,,
Motorola Inc (military electronics),"701 Welch Rd, Palo Alto, CA",-122.172683,37.436904,,Palo Alto,California,,,electrical equipment and supplies ,"Palo Alto Directory, 1956",,,,
National Electronics Inc,"201 Town & Country Village, Palo Alto, CA",1.8774979,7.7227067,,Palo Alto,California,,,electrical equipment and supplies ,"Palo Alto Directory, 1956",,,,
Neely Sales Division Hewlett Packard,"1101 Embarcadero Rd, Palo Alto, CA",-122.1553182,37.4385359,,Palo Alto,California,,,electrical equipment and supplies ,"Palo Alto Directory, 1956",,,,
Nickerson-Gray & Associates Inc,"2434 Park Blvd, Palo Alto, CA",,,,Palo Alto,California,,,electrical equipment and supplies ,"Palo Alto Directory, 1956",,,,
Northrup Nortronics Corp,"2555 Park Blvd, Palo Alto, CA",,,,Palo Alto,California,,,electrical equipment and supplies ,"Palo Alto Directory, 1956",,,,
Nytron Inc,"795 San Antonio Rd, Palo Alto, CA",-122.102342617317,37.41990495,,Palo Alto,California,,,electrical equipment and supplies ,"Palo Alto Directory, 1956",,,,
Pacific Communications & Electronics ,"3941 E. Bayshore Rd, Palo Alto, CA",-122.1029232,37.4305832,,Palo Alto,California,,,electrical equipment and supplies ,"Palo Alto Directory, 1956",,,,
Pacific Electro Magnetic Co Inc,"942 Commercial St, Palo Alto, CA",-122.099841533186,37.424247078454,,Palo Alto,California,,,electrical equipment and supplies ,"Palo Alto Directory, 1956",,,,
Pacific International Electronics Inc (OFC),"535 Ramona St, Palo Alto, CA",-122.1615312,37.4449789,,Palo Alto,California,,,electrical equipment and supplies ,"Palo Alto Directory, 1956",,,,
Pearson Electronics Inc,"4007 Transport St, Palo Alto, CA",-122.100021263815,37.4261795,,Palo Alto,California,,,electrical equipment and supplies ,"Palo Alto Directory, 1956",,,,
Pencor Electronics ,"410 Sherman Ave, Palo Alto, CA",-122.1440817,37.4259473,,Palo Alto,California,,,electrical equipment and supplies ,"Palo Alto Directory, 1956",,,,
Peninsula Associates,"1447 E. Bayshore Rd, Palo Alto, CA",-122.1100708,37.4369821,,Palo Alto,California,,,electrical equipment and supplies ,"Palo Alto Directory, 1956",,,,
Philco Corp (Government Industrial Division),"1875 Fabian Way, Palo Alto, CA",-122.1042399,37.4258394,,Palo Alto,California,,,electrical equipment and supplies ,"Palo Alto Directory, 1956",,,,
Philco Corp (Tech Rep Div) ,"1070 E. Meadow Circle, Palo Alto, CA",-122.109344502738,37.42973265,,Palo Alto,California,,,electrical equipment and supplies ,"Palo Alto Directory, 1956",,,,
Philco Corp (Western Development Laby),"1076 E. Meadow Circle, Palo Alto, CA",-122.108823101444,37.42934235,,Palo Alto,California,,,electrical equipment and supplies ,"Palo Alto Directory, 1956",,,,
Philco Corp (Western Development Laboratories),"3825 Fabian Way, Palo Alto, CA",-122.103780506998,37.427627,,Palo Alto,California,,,electrical equipment and supplies ,"Palo Alto Directory, 1956",,,,
Power Designs Pacific Inc,"3381 Foothill Expressway, Palo Alto, CA",-122.146323264475,37.4044322184213,,Palo Alto,California,,,electrical equipment and supplies ,"Palo Alto Directory, 1956",,,,
RF Associates,"800 San Antonio Rd, Palo Alto, CA",-122.1015364,37.4202915,,Palo Alto,California,,,electrical equipment and supplies ,"Palo Alto Directory, 1956",,,,
Rayex Electronics Corp,"1015 Corporation Way, Palo Alto, CA",-122.1028185,37.4313255,,Palo Alto,California,,,electrical equipment and supplies ,"Palo Alto Directory, 1956",,,,
Sangamo Electronic Co (Dist SLS OFC),"1020 Corporation Way, Palo Alto, CA",-122.101801216155,37.4315865,,Palo Alto,California,,,electrical equipment and supplies ,"Palo Alto Directory, 1956",,,,
Schjeldahl GT CO,"460 Ferne Ave, Palo Alto, CA",-122.106458776184,37.41398895,,Palo Alto,California,,,electrical equipment and supplies ,"Palo Alto Directory, 1956",,,,
Snitzer T. Louis Co,"1020 Corporation Way, Palo Alto, CA",-122.101801216155,37.4315865,,Palo Alto,California,,,electrical equipment and supplies ,"Palo Alto Directory, 1956",,,,
Special Products Inc,"808 San Antonio Rd, Palo Alto, CA",-122.1017652,37.4276246,,Palo Alto,California,,,electrical equipment and supplies ,"Palo Alto Directory, 1956",,,,
Tab Products Co (Mach Div),"937 Commercial St, Palo Alto, CA",-122.100368461542,37.42367695,,Palo Alto,California,,,electrical equipment and supplies ,"Palo Alto Directory, 1956",,,,
Textronix Inc,"3944 Fabian Way, Palo Alto, CA",-122.104313554784,37.4278358423835,,Palo Alto,California,,,electrical equipment and supplies ,"Palo Alto Directory, 1956",,,,
Trans Dynamics Inc,"44 Encina Ave, Palo Alto, CA",-122.160483898864,37.4390781818944,,Palo Alto,California,,,electrical equipment and supplies ,"Palo Alto Directory, 1956",,,,
United Control Corp,"3921 E Bayshore Ave, Palo Alto, CA",,,,Palo Alto,California,,,electrical equipment and supplies ,"Palo Alto Directory, 1956",,,,
Vector Industries Inc,"821 San Antonio Rd, Palo Alto, CA",-122.1017652,37.4276246,,Palo Alto,California,,,electrical equipment and supplies ,"Palo Alto Directory, 1956",,,,
Veeco Instrument Co,"210 California Ave, Palo Alto, CA",-122.14073014505,37.4311022305791,,Palo Alto,California,,,electrical equipment and supplies ,"Palo Alto Directory, 1956",,,,
Weatherford RV Co (Branch Office),"3240 Hillview Ave, Palo Alto, CA",-122.146211768833,37.407948,,Palo Alto,California,,,electrical equipment and supplies ,"Palo Alto Directory, 1956",,,,
Welco Inc,"502 Waverly St, Palo Alto, CA",,,,Palo Alto,California,,,electrical equipment and supplies ,"Palo Alto Directory, 1956",,,,
Westec Electronics Inc,"4117 El Camino Way, Palo Alto, CA",-122.1251291,37.4144824,,Palo Alto,California,,,electrical equipment and supplies ,"Palo Alto Directory, 1956",,,,
Wiltron Co,"930 E. Meadow Dr, Palo Alto, CA",-122.107751371832,37.4279196919526,,Palo Alto,California,,,electrical equipment and supplies ,"Palo Alto Directory, 1956",,,,
Zack Electronics,"654 High St, Palo Alto, CA",-122.161573890049,37.4426503112393,,Palo Alto,California,,,electrical equipment and supplies ,"Palo Alto Directory, 1956",,,,
Bay Associates Inc,"892 Commercial, Palo Alto, CA",-122.0998599,37.422565,,Palo Alto,California,,,electrical equipment and supplies - dealers,"Palo Alto Directory, 1967",,,,
Electrical Materials Inc,"864 San Antonio Rd, Palo Alto, CA",-122.102809930556,37.42432,,Palo Alto,California,,,electrical equipment and supplies - dealers,"Palo Alto Directory, 1967",,,,
Integrated Circuit Engineering Corp,"750 Welch Rd, Palo Alto, CA",-122.175331119048,37.438022,,Palo Alto,California,,,electrical equipment and supplies - dealers,"Palo Alto Directory, 1967",,,,
Milliron Fellows & Co,"849 E. Charleston Rd, Palo Alto, CA",-122.103525262987,37.4222385,,Palo Alto,California,,,electrical equipment and supplies - dealers,"Palo Alto Directory, 1967",,,,
Warner Electric,"644 Emerson St, Palo Alto, CA",-122.160997824081,37.4434639110779,,Palo Alto,California,,,electrical equipment and supplies - dealers,"Palo Alto Directory, 1967",,,,
Stanford Electric Works,"301 High St, Palo Alto, CA",-122.1656274,37.4456649,,Palo Alto,California,,,electrical equipment and supplies - dealers,"Palo Alto Directory, 1967",,,,
Develco Inc,"2905 Ash St, Palo Alto, CA",-122.139551959129,37.4239738327247,,Palo Alto,California,,,electrical equipment and supplies - manufacturers,"Palo Alto Directory, 1967",,,,
Genisco Technology Inc,"378 Cambridge Ave, Palo Alto, CA",-122.145595477577,37.4274661,,Palo Alto,California,,,electrical equipment and supplies - manufacturers,"Palo Alto Directory, 1967",,,,
ITT Cannon Electric Co (Disc Sls Ofc),"960 San Antonio Rd, Palo Alto, CA",-122.101226289453,37.4255222022728,,Palo Alto,California,,,electrical equipment and supplies - manufacturers,"Palo Alto Directory, 1967",,,,
Preformed Line Products Co,"600 Hansen Way, Palo Alto, CA",-122.139436074612,37.4201235,,Palo Alto,California,,,electrical equipment and supplies - manufacturers,"Palo Alto Directory, 1967",,,,
Signal Products Co,"165 University Ave, Palo Alto, CA",-122.163336014728,37.44454495,,Palo Alto,California,,,electrical equipment and supplies - manufacturers,"Palo Alto Directory, 1967",,,,
AMP Inc,"4151 Middlefield Rd, Palo Alto, CA",-122.104396416287,37.4172031,,Palo Alto,California,,,electronic equipment and supplies,"Palo Alto Directory, 1967",,,,
Agastat (Div of Elastic Stop Nut Corp of Am),"165 University Ave, Palo Alto, CA",-122.163336014728,37.44454495,,Palo Alto,California,,,electronic equipment and supplies,"Palo Alto Directory, 1967",,,,
Alfred Electronics of Palo Alto,"3176 Porter Dr, Palo Alto, CA",-122.149362060561,37.4070955,,Palo Alto,California,,,electronic equipment and supplies,"Palo Alto Directory, 1967",,,,
Allen Electronic Corp,"930 Industrial Ave, Palo Alto, CA",-122.098339326426,37.4230315,,Palo Alto,California,,,electronic equipment and supplies,"Palo Alto Directory, 1967",,,,
Alto Scientific Co Inc,"4083 Transport St, Palo Alto, CA",-122.098444966008,37.424613,,Palo Alto,California,,,electronic equipment and supplies,"Palo Alto Directory, 1967",,,,
Andrew Corp,"701 Welch Rd, Palo Alto, CA",-122.172683,37.436904,,Palo Alto,California,,,electronic equipment and supplies,"Palo Alto Directory, 1967",,,,
Applied Space Products Inc,"825 San Antonio Rd, Palo Alto, CA",-122.1017652,37.4276246,,Palo Alto,California,,,electronic equipment and supplies,"Palo Alto Directory, 1967",,,,
Applied Technology Inc,"2626 Hanover, Palo Alto, CA",-122.148723833846,37.4176305,,Palo Alto,California,,,electronic equipment and supplies,"Palo Alto Directory, 1967",,,,
Astro Structures Inc,"220 Demeter St, Palo Alto, CA",,,,Palo Alto,California,,,electronic equipment and supplies,"Palo Alto Directory, 1967",,,,
Barrett Electronics Corp (Western Division),"895 Commercial St, Palo Alto, CA",-122.1005801,37.4228106,,Palo Alto,California,,,electronic equipment and supplies,"Palo Alto Directory, 1967",,,,
Beale Associates,"218 California Ave Palo Alto, CA",-122.140673406936,37.4311743709518,,Palo Alto,California,,,electronic equipment and supplies,"Palo Alto Directory, 1967",,,,
Bivar Co Inc,"725 Loma Verde Ave, Palo Alto, CA",-122.1224219,37.4298851,,Palo Alto,California,,,electronic equipment and supplies,"Palo Alto Directory, 1967",,,,
Circuit Engineering,"4024 Transport, Palo Alto, CA",-122.1004421,37.4255328,,Palo Alto,California,,,electronic equipment and supplies,"Palo Alto Directory, 1967",,,,
Components for Research Inc,"979 Commercial St, Palo Alto, CA",-122.100269828221,37.4246115,,Palo Alto,California,,,electronic equipment and supplies,"Palo Alto Directory, 1967",,,,
Corbin-Farnsworth Inc,"440 Page Mill Rd, Palo Alto, CA",-122.141250300603,37.423860149296,,Palo Alto,California,,,electronic equipment and supplies,"Palo Alto Directory, 1967",,,,
Cornell Dubilier Electronics,"701 Welch Rd, Palo Alto, CA",-122.172683,37.436904,,Palo Alto,California,,,electronic equipment and supplies,"Palo Alto Directory, 1967",,,,
Data Disc Inc,"1275 California Ave, Palo Alto, CA",-122.1430031,37.4285379,,Palo Alto,California,,,electronic equipment and supplies,"Palo Alto Directory, 1967",,,,
Electro Optics Associates,"981 Commercial St, Palo Alto, CA",-122.1002839,37.4246904,,Palo Alto,California,,,electronic equipment and supplies,"Palo Alto Directory, 1967",,,,
Aerotherm Corp,"460 California Ave, Palo Alto, CA",-122.145562572278,37.42580545,,Palo Alto,California,,,research,,,,,
Aerotherm Corp (Experimental Servs Div),"1450 Page Mill Rd, Palo Alto, CA",-122.149455848229,37.4164965,,Palo Alto,California,,,research,"Palo Alto Directory, 1967",,,,
American Institute of Research,"1791 Arastradero Rd, Palo Alto, CA",-122.1268319,37.4053519,,Palo Alto,California,,,research,"Palo Alto Directory, 1967",,,,
Applied Technology Inc,"3410 Hillview Ave, Palo Alto, CA",-122.146528202991,37.39880545,,Palo Alto,California,,,research,"Palo Alto Directory, 1967",,,,
Arequipa Foundation,"2492 Pulgas Ave, Palo Alto, CA",,,,Palo Alto,California,,,research,"Palo Alto Directory, 1967",,,,
Arrow Development Co,"936 Commercial, Palo Alto, CA",-122.099703912146,37.423457,,Palo Alto,California,,,research,"Palo Alto Directory, 1967",,,,
Business Research & Development,"361 Lytton Ave, Palo Alto, CA",-122.162359318835,37.4476146605332,,Palo Alto,California,,,research,"Palo Alto Directory, 1967",,,,
Decision Studies Group,"460 California Ave, Palo Alto, CA",-122.145562572278,37.42580545,,Palo Alto,California,,,research,"Palo Alto Directory, 1967",,,,
Develco Inc,"440 Pepper Ave, Palo Alto, CA",-122.140502277174,37.4235285,,Palo Alto,California,,,research,"Palo Alto Directory, 1967",,,,
ESL Inc,"3950 Fabian Way, Palo Alto, CA",-122.1046444,37.423637,,Palo Alto,California,,,research,"Palo Alto Directory, 1967",,,,
Educational Development Corp,"200 California Ave, Palo Alto, CA",-122.143425260803,37.4285563,,Palo Alto,California,,,research,"Palo Alto Directory, 1967",,,,
Fairchild Semiconductor Corp (electronics),"844 E. Charleston Rd, Palo Alto, CA",-122.103337087694,37.4216025,,Palo Alto,California,,,research,"Palo Alto Directory, 1967",,,,
Fairchild Semiconductor Research Laboratory,"4001 Junipero Serra Blvd, Palo Alto, CA",,,,Palo Alto,California,,,research,"Palo Alto Directory, 1967",,,,
Freeman WH & Co,"2415 Embarcadero Way, Palo Alto, CA",-122.112846073835,37.45252345,,Palo Alto,California,,,research,"Palo Alto Directory, 1967",,,,
HP Associates ,"620 Page Mill Road, Palo Alto, CA",-122.1453646,37.4221802,,Palo Alto,California,,,research,"Palo Alto Directory, 1967",,,,
Intercontinental Research Beacon Co,"415 Cambridge Ave, Palo Alto, CA",-122.145647008039,37.4266003,,Palo Alto,California,,,research,"Palo Alto Directory, 1967",,,,
Itek Corp,"1450 Page Mill Rd, Palo Alto, CA",-122.149455848229,37.4164965,,Palo Alto,California,,,research,"Palo Alto Directory, 1967",,,,
Litton Industries Inc (Atherton Div),"974 Commercial St, Palo Alto, CA",-122.0996485,37.424214,,Palo Alto,California,,,research,"Palo Alto Directory, 1967",,,,
Metronics Associates,"3201 Porter Dr, Palo Alto, CA",-122.1487731,37.4078074,,Palo Alto,California,,,research,"Palo Alto Directory, 1967",,,,
National Research & Appraisal Co,"3980 Fabian Way, Palo Alto, CA",-122.1047025,37.422801,,Palo Alto,California,,,research,"Palo Alto Directory, 1967",,,,
Paeco Division of Hewlett-Packard Co,"620 Page Mill Road, Palo Alto, CA",-122.1453646,37.4221802,,Palo Alto,California,,,research,"Palo Alto Directory, 1967",,,,
Palo Alto Medical Research Foundation,"860 Bryant St, Palo Alto, CA",-122.157170225002,37.442993378729,,Palo Alto,California,,,research,"Palo Alto Directory, 1967",,,,
Polaroid Corp (Research Laby),"470 San Antonio Rd, Palo Alto, CA",,,,Palo Alto,California,,,research,"Palo Alto Directory, 1967",,,,
Pursley David I,"701 Welch Road, Palo Alto, CA",-122.172683,37.436904,,Palo Alto,California,,,electrical equipment and supplies ,"Palo Alto Directory, 1970",,,,
Reliability Research & Technology ,"960 San Antonio Road, Palo Alto, CA",-122.101226289453,37.4255222022728,,Palo Alto,California,,,electrical equipment and supplies - dealers,"Palo Alto Directory, 1970",,,,
Science Research Associates,"165 University Ave, Palo Alto, CA",-122.163336014728,37.44454495,,Palo Alto,California,,,electrical equipment and supplies - dealers,"Palo Alto Directory, 1970",,,,
Sleep Research Laboratory,"3801 Junipero Serra Blvd, Palo Alto, CA",,,,Palo Alto,California,,,electrical equipment and supplies - manufacturers,"Palo Alto Directory, 1970",,,,
Sondell Research Co,"931 Commercial St, Palo Alto, CA",-122.1004541,37.4233959,,Palo Alto,California,,,electrical equipment and supplies - manufacturers,"Palo Alto Directory, 1970",,,,
Stanford Research Institute (Hanover Br),"2690 Hanover St, Palo Alto, CA",-122.147953710519,37.41725545,,Palo Alto,California,,,electrical equipment and supplies - manufacturers,"Palo Alto Directory, 1970",,,,
Stanford Research Institute (PCRTER Facility),"3180 Porter Dr, Palo Alto, CA",-122.14862038503,37.4071495,,Palo Alto,California,,,electrical equipment and supplies - manufacturers,"Palo Alto Directory, 1970",,,,
Synvar Associates,"3221 Porter Dr, Palo Alto, CA",-122.148359776056,37.4083635,,Palo Alto,California,,,electrical equipment and supplies ,"Palo Alto Directory, 1970",,,,
Texas Instruments Inc,"230 California Ave, Palo Alto, CA",-122.140586735818,37.4312813357953,,Palo Alto,California,,,electrical equipment and supplies ,"Palo Alto Directory, 1970",,,,
Trivision Inc,"2411 Pulgas Ave, East Palo Alto, CA",-122.130579700038,37.4704997059495,,Palo Alto,California,,,electrical equipment and supplies ,"Palo Alto Directory, 1970",,,,
Varian Associates,"611 Hansen Way, Palo Alto, CA",-122.138340315085,37.418411,,Palo Alto,California,,,electrical equipment and supplies ,"Palo Alto Directory, 1970",,,,
Watkins Johnson Co,"3333 Hillview Avenue, Palo Alto, CA",-122.145157,37.407483,,Palo Alto,California,,,electrical equipment and supplies ,"Palo Alto Directory, 1970",,,,
Wolf Research & Development,"999 Commercial St, Palo Alto, CA",-122.099930378289,37.425297,,Palo Alto,California,,,electrical equipment and supplies ,"Palo Alto Directory, 1970",,,,
AMP Inc,"4151 Middlefield Road, Palo Alto, CA",-122.104396416287,37.4172031,,Palo Alto,California,,,electrical equipment and supplies ,"Palo Alto Directory, 1970",,,,
Bay Associates Inc,"892 Commercial, Palo Alto, CA",-122.0998599,37.422565,,Palo Alto,California,,,electrical equipment and supplies ,"Palo Alto Directory, 1970",,,,
Electrical Materials Inc,"796 San Antonio Rd, Palo Alto, CA",-122.10148932584,37.4199325,,Palo Alto,California,,,electrical equipment and supplies ,"Palo Alto Directory, 1970",,,,
ITT Cannon Electric Co,"960 San Antonio Road, Palo Alto, CA",-122.101226289453,37.4255222022728,,Palo Alto,California,,,electrical equipment and supplies ,"Palo Alto Directory, 1970",,,,
Preformed Line Products Co,"600 Hansen Way, Palo Alto, CA",-122.139436074612,37.4201235,,Palo Alto,California,,,electrical equipment and supplies ,"Palo Alto Directory, 1970",,,,
Stigall Motors Inc,"3017 El Camino Real, Palo Alto, CA",-122.13953668273,37.42217745,,Palo Alto,California,,,electrical equipment and supplies ,"Palo Alto Directory, 1970",,,,
Swiss-Craft,"291 Lambert Ave, Palo Alto, CA",-122.134975,37.4228171,,Palo Alto,California,,,electrical equipment and supplies ,"Palo Alto Directory, 1970",,,,
Adcole Corp,"999 Commercial St, Palo Alto, CA",-122.099930378289,37.425297,,Palo Alto,California,,,electrical equipment and supplies ,"Palo Alto Directory, 1970",,,,
Advalloy Inc,"844 E. Charleston Rd, Palo Alto, CA",-122.103337087694,37.4216025,,Palo Alto,California,,,electrical equipment and supplies ,"Palo Alto Directory, 1970",,,,
Alma Corp,"470 San Antonio Rd, Palo Alto, CA",,,,Palo Alto,California,,,electrical equipment and supplies ,"Palo Alto Directory, 1970",,,,
Alto Scientific Co Inc,"4083 Transport St, Palo Alto, CA",-122.098444966008,37.424613,,Palo Alto,California,,,electrical equipment and supplies ,"Palo Alto Directory, 1970",,,,
Amperex Electronic Corp,"801 E. Charleston Road, Palo Alto, CA",-122.104995395391,37.42241,,Palo Alto,California,,,electrical equipment and supplies ,"Palo Alto Directory, 1970",,,,
Andrew California Corp,"701 Welch Road, Palo Alto, CA",-122.172683,37.436904,,Palo Alto,California,,,electrical equipment and supplies ,"Palo Alto Directory, 1970",,,,
Antekna Inc,"4015 Fabian Way, Palo Alto, CA",-122.1042399,37.4258394,,Palo Alto,California,,,electrical equipment and supplies ,"Palo Alto Directory, 1970",,,,
Applied Space Products Inc,"825 San Antonio Road, Palo Alto, CA",-122.10374,37.4156375,,Palo Alto,California,,,electrical equipment and supplies ,"Palo Alto Directory, 1970",,,,
BEM Co,"960 San Antonio Road, Palo Alto, CA",-122.101226289453,37.4255222022728,,Palo Alto,California,,,electrical equipment and supplies ,"Palo Alto Directory, 1970",,,,
Barrett Electronics Corp (Western Division),"897 Commercial St, Palo Alto, CA",-122.1006552,37.4228852,,Palo Alto,California,,,electrical equipment and supplies ,"Palo Alto Directory, 1970",,,,
Bendix Corp,"800 San Antonio Road, Palo Alto, CA",-122.1015146,37.4202223,,Palo Alto,California,,,electrical equipment and supplies ,"Palo Alto Directory, 1970",,,,
Brush Instruments (Div Gould),"780 Welch Road, Palo Alto, CA",-122.176740597109,37.4375615,,Palo Alto,California,,,electrical equipment and supplies ,"Palo Alto Directory, 1970",,,,
Burndy Corp,"3975 E. Bayshore Rd, Palo Alto, CA",-122.102228,37.4299857,,Palo Alto,California,,,electrical equipment and supplies ,"Palo Alto Directory, 1970",,,,
Burroughs Inc,"770 Welch Rd, Palo Alto, CA",-122.176108950241,37.438155,,Palo Alto,California,,,electrical equipment and supplies ,"Palo Alto Directory, 1970",,,,
Cellotape Inc,"4024 Transport St, Palo Alto, CA",-122.1004421,37.4255328,,Palo Alto,California,,,electrical equipment and supplies ,"Palo Alto Directory, 1970",,,,
Components Unlimited,"1020 Corporation Way, Palo Alto, CA",-122.101801216155,37.4315865,,Palo Alto,California,,,electrical equipment and supplies ,"Palo Alto Directory, 1970",,,,
Computer Metrics,"991 Commercial St, Palo Alto, CA",-122.100223411729,37.42496,,Palo Alto,California,,,electrical equipment and supplies ,"Palo Alto Directory, 1970",,,,
Data Disc Inc,"1275 California Ave, Palo Alto, CA",-122.1430031,37.4285379,,Palo Alto,California,,,electrical equipment and supplies ,"Palo Alto Directory, 1970",,,,
Data Measurement Corp,"855 Commercial Ave, Palo Alto, CA",,,,Palo Alto,California,,,electrical equipment and supplies ,"Palo Alto Directory, 1970",,,,
Diphase Inc,"800 San Antonio Road, Palo Alto, CA",-122.1015146,37.4202223,,Palo Alto,California,,,electrical equipment and supplies ,"Palo Alto Directory, 1970",,,,
Durrum Instrument Corp,"3950 Fabian Way, Palo Alto, CA",-122.1046444,37.423637,,Palo Alto,California,,,electrical equipment and supplies ,"Palo Alto Directory, 1970",,,,
EPA Electronics,"220 Demeter St, East Palo Alto, CA",-122.134095071135,37.4750729329966,,Palo Alto,California,,,electrical equipment and supplies ,"Palo Alto Directory, 1970",,,,
Electronic Associates Inc,"4151 Middlefield Road, Palo Alto, CA",-122.104396416287,37.4172031,,Palo Alto,California,,,electrical equipment and supplies ,"Palo Alto Directory, 1970",,,,
Energy Systems An Ayden Co,"3180 Hanover St, Palo Alto, CA",-122.1464616,37.4141881,,Palo Alto,California,,,electrical equipment and supplies ,"Palo Alto Directory, 1970",,,,
Engineering Associate,"999 Commercial St, Palo Alto, CA",-122.099930378289,37.425297,,Palo Alto,California,,,electrical equipment and supplies ,"Palo Alto Directory, 1970",,,,
Erie Technological Products Inc,"460 California Ave, Palo Alto, CA",-122.145562572278,37.42580545,,Palo Alto,California,,,electrical equipment and supplies ,"Palo Alto Directory, 1970",,,,
Farinon Microwave,"943 Industrial Ave, Palo Alto, CA",-122.0990143,37.423557,,Palo Alto,California,,,electrical equipment and supplies ,"Palo Alto Directory, 1970",,,,
Fetty & Schoenduve ,"253 Town & Country, Palo Alto, CA",1.8774979,7.7227067,,Palo Alto,California,,,electrical equipment and supplies ,"Palo Alto Directory, 1970",,,,
Fisher Research Laboratory Inc,"1890 Embarcadero Rd, Palo Alto, CA",-122.113978507707,37.4526575,,Palo Alto,California,,,electrical equipment and supplies ,"Palo Alto Directory, 1970",,,,
Garner Laine Electronics,"825 San Antonio Road, Palo Alto, CA",-122.10374,37.4156375,,Palo Alto,California,,,electrical equipment and supplies ,"Palo Alto Directory, 1970",,,,
General Electric Co (Defense Program Div),"701 Welch Road, Palo Alto, CA",-122.172683,37.436904,,Palo Alto,California,,,electrical equipment and supplies ,"Palo Alto Directory, 1970",,,,
Geo Metrics,"914 Industrial Ave, Palo Alto, CA",-122.098336930344,37.4226465,,Palo Alto,California,,,electrical equipment and supplies ,"Palo Alto Directory, 1970",,,,
Granger Associates,"1601 California Ave, Palo Alto, CA",-122.152181568182,37.4159835,,Palo Alto,California,,,electrical equipment and supplies ,"Palo Alto Directory, 1970",,,,
Hathaway Pacific Corp,"4055 Fabian Way, Palo Alto, CA",-122.1042399,37.4258394,,Palo Alto,California,,,electrical equipment and supplies ,"Palo Alto Directory, 1970",,,,
Hewlett-Packard (Paeco Div),"3215 Porter Dr, Palo Alto, CA",-122.148026991935,37.408925,,Palo Alto,California,,,electrical equipment and supplies ,"Palo Alto Directory, 1970",,,,
